{
	"centers": [
		{
			"name": "اداره کل انتقال خون البرز",
			"address": "البرز- کرج – 45 متری گلشهر – 4 راه گلزار غربی – اداره کل انتقال خون",
			"worktime": "از شنبه تا  5 شنبه از ساعت 8 الی 18",
			"phone": "0263350771|04435634287|02633503344",
			"balad": "https://balad.ir/embed?p=363cSLWbCb1Woo",
			"googlemap": "https://goo.gl/maps/1A7AboUnWSWKeDmc7",
			"location": "35.821728,50.9262955"
		},
		{
			"name": "مرکز اهدای خون توحید",
			"address": "کرج – بلوار توحید ضلع شرقی میدان مرکز اهدای خون توحید",
			"worktime": "از شنبه  تا  چهارشنبه از ساعت 8 الی 13 | پنج شنبه ها از ساعت 8 الی 12",
			"phone": "02632231810",
			"balad": "https://balad.ir/embed?p=5UlUsJExKZAHsf",
			"googlemap": "https://goo.gl/maps/J1xM6P6JMekBQ44u6",
			"location": "35.8217073,50.8650101"
		},
		{
			"name": "مرکز اهدای خون مهربانو",
			"address": "کرج - رجایی شهر خ قائم (داریوش ) نبش کوچه آریا ساختمان مهربانو ط 2",
			"worktime": "شنبه و  یکشنبه ساعت 8 الی 13 ",
			"phone": "02634216448",
			"balad": "https://balad.ir/embed?p=3LYO6SW2xds6GX",
			"googlemap": "https://goo.gl/maps/371zLxTdWy2YrNC59",
			"location": "35.8512065,50.9337263"
		},
		{
			"name": "مرکز ثابت اهدای خون اردبیل",
			"address": "میدان شریعتی- خیابان هلال احمر-جنب بیمارستان فاطمی",
			"worktime": "ایام هفته 7:30 الی 19:30",
			"phone": "04533237167",
			"balad": "https://balad.ir/embed?p=6QSysol6QzQofi",
			"googlemap": "https://goo.gl/maps/ts1xe7aaaY3ymx2B9",
			"location": "38.2381185,48.2844401"
		},
		{
			"name": "پایگاه انتقال خون پارس آباد",
			"address": "خیابان امام خمینی(ره) روبروی پارک مغان",
			"worktime": "ایام هفته 7:30 الی 13:30",
			"phone": "04532730606",
			"balad": "https://balad.ir/embed?p=1VnGCeZYM825ap",
			"googlemap": "https://goo.gl/maps/D2FPMpBWhwKn27ux7",
			"location": "39.6517827,47.9001285"
		},
		{
			"name": "پایگاه انتقال خون مشکین شهر",
			"address": "خیابان سعدی- نرسیده به بیمارستان ولیعصر(عج)",
			"worktime": "ایام هفته 7:30 الی 13:30",
			"phone": "04532536600",
			"balad": "https://balad.ir/embed?p=L4RT5QW3xwshuj",
			"googlemap": "https://goo.gl/maps/qLTsC7YLF5SMtTkcA",
			"location": "38.3791822,47.6779392"
		},
		{
			"name": "پایگاه انتقال خون خلخال",
			"address": "خیابان اشرفی اصفهانی",
			"worktime": "ایام هفته 7:30 الی 13:30",
			"phone": "04532427866",
			"balad": "https://balad.ir/embed?p=7lYwHH9y8xaXkb",
			"googlemap": "https://goo.gl/maps/hQCZi5y4YTUEctGd8",
			"location": "37.5903713,48.3007519"
		},
		{
			"name": "اداره کل انتقال خون استان بوشهر",
			"address": "بوشهر- خیابان امام خمینی –روبروی کلینیک تخصصی ملت- اداره کل انتقال خون استان بوشهر",
			"worktime": "7/30-13 - 16-20",
			"phone": "07733323822|07733323823",
			"balad": "https://balad.ir/embed?p=421ChdBU5dwIot",
			"googlemap": "https://goo.gl/maps/VDCmrAZyLFqtGejF6",
			"location": "28.9749958,50.8328534"
		},
		{
			"name": "مرکز اهدای خون کنگان",
			"address": "کنگان- بلوارامام خمینی - خیابان شهدا- جنب پزشک قانونی",
			"worktime": "7/30-12-30",
			"phone": "07727220921",
			"balad": "https://balad.ir/embed?p=PPwR6Ri0akLwyq",
			"googlemap": "https://goo.gl/maps/zKaq1rLSymXbohRw7",
			"location": "27.8378376,52.0593061"
		},
		{
			"name": "مرکز اهدای خون گناوه",
			"address": "گناوه – چهارراه معلم- خیابان ساحلی",
			"worktime": "7/30-12-30",
			"phone": "07723220720",
			"balad": "https://balad.ir/embed?p=4wkyDOXIsXQjAp",
			"googlemap": "https://goo.gl/maps/pyHg1crxctengygcA",
			"location": "29.5737109,50.5120101"
		},
		{
			"name": "مرکز اهدای خون دشتستان",
			"address": "برازجان – ابتدای خیابان شهیدچمران- کوچه کلانتری",
			"worktime": "7:30 الی 12:30",
			"phone": "07734221850",
			"balad": "https://balad.ir/embed?p=PKr0F3ogjZ7qRf",
			"googlemap": "https://goo.gl/maps/rMRPDLRdcUtWR7Pj7",
			"location": "29.2658524,51.2064289"
		},
		{
			"name": "اداره کل انتقال خون استان چهارمحال و بختیاری",
			"address": "شهرکرد-بلوارشریعتی-خیابان انتقال خون",
			"worktime": "",
			"phone": "03833331489",
			"balad": "https://balad.ir/embed?p=3hUl3lXFaxTfar",
			"googlemap": "https://goo.gl/maps/KJ6YDku5K35KKsLCA",
			"location": "32.144529,50.6475917"
		},
		{
			"name": "مرکز اهدای خون شهرکرد",
			"address": "فارسان-خیابان امام زاده-جنب امام زاده",
			"worktime": "",
			"phone": "03833224647",
			"balad": "https://balad.ir/embed?p=4BUsqgF8ybM59g",
			"googlemap": "https://goo.gl/maps/z35oCr3RemuQNduTA",
			"location": "32.2567198,50.5645203"
		},
		{
			"name": "مرکز اهدای خون بروجن",
			"address": "بروجن- خیابان آیت اله کاشانی",
			"worktime": "",
			"phone": "03834226999",
			"balad": "https://balad.ir/embed?p=79qfsQ3gsQlmdF",
			"googlemap": "https://goo.gl/maps/BQsKySzMZ9qssZPz6",
			"location": "31.9735778,51.2866446"
		},
		{
			"name": "مرکز اهدای خون بن",
			"address": "بن- خیابان شهدا",
			"worktime": "",
			"phone": "",
			"balad": "",
			"googlemap": "",
			"location": ""
		},
		{
			"name": "اداره کل انتقال خون آذربایجان شرقی",
			"address": "تبریز- خیابان آخونی نبش کوی شادگان 2",
			"worktime": "شنبه تا چهارشنبه: از ساعت 7:30 صبح لغایت 18:30 | پنجشنبه : 7:30 صیح لغایت 17:30 | جمعه و روزهای تعطیل:10 صبح لغایت 16:30",
			"phone": "04132863796",
			"balad": "https://balad.ir/embed?p=4AQW8dXS1Y0Kr4",
			"googlemap": "https://goo.gl/maps/ndVLHQ7RVpYVF7Fj8",
			"location": "38.0822906,46.2502494"
		},
		{
			"name": "مرکز اهدای خون مسجد کبود",
			"address": "تبریز- خیابان امام خمینی (ره) روبروی مسجد کبود – پلاک 209",
			"worktime": "شنبه تا چهارشنبه: از ساعت 7:30 صبح لغایت 18:30  | پنجشنبه : 7:30 صیح لغایت 17:30  | جمعه و روزهای تعطیل:10 صبح لغایت 16:30",
			"phone": "04135564666",
			"balad": "https://balad.ir/embed?p=3Sd3lgoXVLo0Zg",
			"googlemap": "https://goo.gl/maps/HoDugotg9mkNkuNH9",
			"location": "38.0777515,46.25787"
		},
		{
			"name": "مرکز اهدای خون مراغه",
			"address": "خیابان امام خمینی(ره) خیابان خرمشهر – پلاک 25",
			"worktime": "بجز  جمعه و روزهای تعطیل از 8 صبح لغایت 13:30",
			"phone": "04137452595",
			"balad": "https://balad.ir/embed?p=5DoiQkjFYlOqSU",
			"googlemap": "https://goo.gl/maps/gzqgmjBmDykjzeZa6",
			"location": "38.0829154,46.2475383"
		},
		{
			"name": "مرکز اهدای خون میانه",
			"address": "خیابان بهشتی روبروی مدرسه علمیه – پلاک 18",
			"worktime": "بجز  جمعه و روزهای تعطیل از 8 صبح لغایت 13:30",
			"phone": "04152225551",
			"balad": "https://balad.ir/embed?p=3VA3U3X6FvIWN3",
			"googlemap": "https://goo.gl/maps/tBVHiGdfRDNdHVdx7",
			"location": "37.4191381,47.7095661"
		},
		{
			"name": "مرکز اهدای خون اهر",
			"address": "اهر- جاده مشکین جنب اداره تبلیغات اسلامی",
			"worktime": "فقط روزهای دوشنبه هر هفته  از ساعت 10 صبح لغایت 13:30",
			"phone": "04132863796",
			"balad": "",
			"googlemap": "",
			"location": ""
		},
		{
			"name": "مرکز اهدای خون مرند",
			"address": "مرند- خیابان امام خمینی روبروی هلال احمر",
			"worktime": "فقط روزهای  یکشنبه  هر هفته  از ساعت 10 صبح لغایت 13:30",
			"phone": "04132863796",
			"balad": "",
			"googlemap": "",
			"location": ""
		},
		{
			"name": "مرکز اهدای خون خواجو",
			"address": "اصفهان- میدان خواجو",
			"worktime": "شنبه تا چهارشنبه 7:30 تا 18:30 | پنج شنبه ها 7:30 تا 17:30 ",
			"phone": "03132228885",
			"balad": "https://balad.ir/embed?p=PS4rGfHouMpchR",
			"googlemap": "https://goo.gl/maps/vkrPgUN6roC1ErKR8",
			"location": "32.6379669,51.6801542"
		},
		{
			"name": "مرکز اهدای خون عاشق اصفهانی",
			"address": "اصفهان- چهارراه عاشق اصفهانی- ابتدای عاشق اصفهانی",
			"worktime": "شنبه تا پنج شنبه 8 تا 12:30",
			"phone": "03135521801",
			"balad": "https://balad.ir/embed?p=PyuqiH4VWBpqI1",
			"googlemap": "https://goo.gl/maps/yUAYsrn7aBvRkXGCA",
			"location": "32.7093469,51.7190301"
		},
		{
			"name": "مرکز اهدای خون شاهین شهر",
			"address": "شاهین شهر- بلوار دکتر حسابی اول فرعی 9",
			"worktime": "شنبه – دوشنبه- چهار شنبه 8 تا 12",
			"phone": "03132228885",
			"balad": "https://balad.ir/embed?p=1ECD2BCaIcYpUz",
			"googlemap": "https://goo.gl/maps/EjQTXuZsaVehzeGP9",
			"location": "32.8688764,51.5499222"
		},
		{
			"name": "مرکز اهدای خون خمینی شهر",
			"address": "خمینی شهر- خیابان امام شمالی",
			"worktime": "شنبه تا پنج شنبه 8تا 12:30",
			"phone": "03133613746",
			"balad": "https://balad.ir/embed?p=iG2l7y8Yhdz2UB",
			"googlemap": "https://goo.gl/maps/8NaCr6s2jMyT97DMA",
			"location": "32.6815498,51.5333127"
		},
		{
			"name": "مرکز اهدای خون نجف آباد",
			"address": "خیابان 17 شهریور غربی",
			"worktime": "شنبه تا پنج شنبه 8 تا 12:30",
			"phone": "03142621114",
			"balad": "https://balad.ir/embed?p=PxtoMfyc3RZy7T",
			"googlemap": "https://goo.gl/maps/QxFFNuYodUJEfTbcA",
			"location": "32.6345972,51.3593352"
		},
		{
			"name": "مرکز اهدای خون خوانسار",
			"address": "خوانسار- بلوار معلم",
			"worktime": "شنبه تا پنج شنبه 8 تا 12:30",
			"phone": "03157770443",
			"balad": "https://balad.ir/embed?p=R42AZMDcYciG1c",
			"googlemap": "https://goo.gl/maps/mt3LBQhtygLHsxv17",
			"location": "33.2270649,50.3157335"
		},
		{
			"name": "مرکز اهدای خون گلپایگان",
			"address": "گلپایگان- خیابان شهید رجایی",
			"worktime": "شنبه تا پنج شنبه 8 تا 12",
			"phone": "03157453833",
			"balad": "https://balad.ir/embed?p=f7EaEEYvdqwSdK",
			"googlemap": "https://goo.gl/maps/NYP8LJwHhZfGwkNu6",
			"location": "33.4541856,50.2832487"
		},
		{
			"name": "مرکز اهدای خون کاشان",
			"address": "کاشان- میدان قاضی اسداله",
			"worktime": "شنبه تا پنج شنبه 8 تا 13",
			"phone": "03155318855",
			"balad": "https://balad.ir/embed?p=7eEiE4myUL15n1",
			"googlemap": "https://goo.gl/maps/P6JrgEAsv7S1tKJL6",
			"location": "33.9754722,51.432121"
		},
		{
			"name": "مرکز اهدای خون نایین",
			"address": "نایین- خیابان امام خمینی",
			"worktime": "شنبه – دوشنبه- چهار شنبه 8 تا 12",
			"phone": "03146253086",
			"balad": "https://balad.ir/embed?p=V72L3iaT9iQckz",
			"googlemap": "https://goo.gl/maps/WbwnCtok3t1g8DhBA",
			"location": "32.863326,53.0884472"
		},
		{
			"name": "مرکز اهدای خون شهرضا",
			"address": "شهرضا- خیابان شهید بهشتی",
			"worktime": "شنبه تا پنج شنبه 8  تا 13",
			"phone": "03153227833",
			"balad": "https://balad.ir/embed?p=34XaTyhYh9pidQ",
			"googlemap": "https://goo.gl/maps/devMJ4LHbQ3dUR2v5",
			"location": "32.0158906,51.8706805"
		},
		{
			"name": "مرکز اهدای خون زرین شهر",
			"address": "زرین شهر- بلوار معلم جنب بسیج",
			"worktime": "روزهای سه شنبه 8 تا 12",
			"phone": "03152239878",
			"balad": "https://balad.ir/embed?p=1RaA65BdeZULHs",
			"googlemap": "https://goo.gl/maps/F4gVpDa3wcyrKKm4A",
			"location": "32.3892184,51.3604526"
		},
		{
			"name": "مرکز اهدای خون قوامی",
			"address": "شیراز- خیابان قصردشت –ایستگاه قوامی",
			"worktime": "همه روزه از ساعت 8 الی 19:45 | ایام تعطیل از ساعت 8 الی 19",
			"phone": "07136284926|07136284927|07136284928|07136284929",
			"balad": "https://balad.ir/embed?p=4nnuxRpeQ6OZLs",
			"googlemap": "https://goo.gl/maps/YN7Xyt7hQMQB1Pqq6",
			"location": "31.4968549,50.7070825"
		},
		{
			"name": "مرکز اهدای خون نمازی",
			"address": "شیراز- میدان نمازی – جنب درمانگاه امام رضا(ع)",
			"worktime": "همه روزه از ساعت 8 الی 19:30 | بجز ایام تعطیل",
			"phone": "07132352084",
			"balad": "https://balad.ir/embed?p=2araTrtjrhaXWy",
			"googlemap": "https://goo.gl/maps/LZgmk7uZDZNCe2uA6",
			"location": "29.6278711,52.5051787"
		},
		{
			"name": "مرکز اهدای خون مرودشت",
			"address": "مرودشت- روبروی کارخانه قند",
			"worktime": "همه روزه صبحها ازساعت 8 الی ۱۳:۰۰ بجز ایام تعطیل",
			"phone": "07143234666",
			"balad": "https://balad.ir/embed?p=4IhsSLRRUqbUGp",
			"googlemap": "https://goo.gl/maps/esZ7aQEPbWx3DAYS9",
			"location": "29.8656352,52.7989089"
		},
		{
			"name": "مرکز اهدای خون جهرم",
			"address": "جهرم- بلوار شهید مطهری روبروی بیمارستان استاد مطهری",
			"worktime": "همه روزه صبحها ازساعت ۷:۳۰ الی ۱۳:۰۰ بجز ایام تعطیل",
			"phone": "07154344500",
			"balad": "https://balad.ir/embed?p=Ht9cd7jTcSXmKk",
			"googlemap": "https://goo.gl/maps/E9w6rCzLzFLqaJG17",
			"location": "28.4997592,53.5856826"
		},
		{
			"name": "مرکز اهدای خون بنی هاشمی",
			"address": "جهرم- میدان شهدا خیابان ۱۷ شهریور – کوچه1",
			"worktime": "عصر روزهای شنبه تا چهارشنبه از ساعت ۱۵ الی ۲۰",
			"phone": "07154223700",
			"balad": "https://balad.ir/embed?p=UXV6hw368qLEFC",
			"googlemap": "https://goo.gl/maps/AHhbns2NnY5tfit58",
			"location": "28.502578,53.5503636"
		},
		{
			"name": "مرکز اهدای خون داراب",
			"address": "داراب،بلوار جمهوری،جنب شهدای گمنام",
			"worktime": "همه روزه صبحها ازساعت 8 الی ۱۳:۰۰ بجز ایام تعطیل",
			"phone": "07153527098",
			"balad": "https://balad.ir/embed?p=ZmEg6cneDF3HAM",
			"googlemap": "https://goo.gl/maps/KcCtoQtDxZHTMAvF9",
			"location": "28.7559273,54.5510154"
		},
		{
			"name": "مرکز اهدای خون آباده",
			"address": "آباده بلواراستقلال،جنب مسجدامام حسین ع",
			"worktime": "همه روزه صبحها ازساعت 8 الی ۱۳:۰۰ بجز ایام تعطیل",
			"phone": "07144336288",
			"balad": "https://balad.ir/embed?p=GRBEWcHdt3N2Uz",
			"googlemap": "https://goo.gl/maps/rvyudjQYZJtzAVMG6",
			"location": "31.1602889,52.6592564"
		},
		{
			"name": "مرکز اهدای خون فسا",
			"address": "فسا میدان پلیس ابتدای خیابان شاهزاده قاسم روبروی کمیته امداد امام خمینی (ره)",
			"worktime": "همه روزه صبحها ازساعت 8 الی ۱۳:۰۰ بجز ایام تعطیل",
			"phone": "07153358991",
			"balad": "https://balad.ir/embed?p=NQ3eqZJvZSf6S9",
			"googlemap": "https://goo.gl/maps/HRkC1MzkcDoBe8xT9",
			"location": "28.9402337,53.6443916"
		},
		{
			"name": "اداره کل انتقال خون استان گیلان",
			"address": "رشت- میدان فرهنگ- خیابان آزادگان- جنب بانک کشاورزی – کوچه اهدای خون",
			"worktime": "شنبه الی چهارشنبه صبح و عصر : 7:45 الی 19 | پنجشنبه :  7:45 صبح الی18  | جمعه : 8:30 الی 13",
			"phone": "01333326006|01333332670",
			"balad": "https://balad.ir/embed?p=1CO46fHWC10nwf",
			"googlemap": "https://goo.gl/maps/zYNdVsCfxACT2HAt8",
			"location": "37.2684029,49.5964931"
		},
		{
			"name": "مرکز اهدای خون لاهیجان",
			"address": "لاهیجان- خیابان امام خمینی – جنب بیمارستان ۲۲ آبان",
			"worktime": "شنبه الی چهارشنبه صبح و عصر : 7:45 الی 19 | پنجشنبه : 7:45 صبح الی18",
			"phone": "01342231022|01342227090",
			"balad": "https://balad.ir/embed?p=6AwyYXjGF4y2Uq",
			"googlemap": "https://goo.gl/maps/JpbJJZQ8GV5yokoJ8",
			"location": "37.2059217,50.0034892"
		},
		{
			"name": "مرکز اهدای خون رودسر",
			"address": "رودسر- خیابان انقلاب – جنب بیمارستان شهدا",
			"worktime": "شنبه الی پنجشنبه : 7:45 صبح الی 13:15",
			"phone": "01342626000",
			"balad": "https://balad.ir/embed?p=3yStNw0TpjfcuO",
			"googlemap": "https://goo.gl/maps/5XJPGeDLA5D572YPA",
			"location": "37.1341785,50.2882315"
		},
		{
			"name": "مرکز اهدای خون انزلی",
			"address": "انزلی- خیابان سی متری – جنب دانشگاه بین الملل علوم پزشکی",
			"worktime": "شنبه الی پنجشنبه :  7:45 صبح الی 13:15",
			"phone": "01344542801|01344541127",
			"balad": "https://balad.ir/embed?p=G5pUD17hBubhZf",
			"googlemap": "https://goo.gl/maps/kp9nBktwDUdti3qR6",
			"location": "37.3062315,49.593202"
		},
		{
			"name": "مرکز اهدای خون فومن",
			"address": "فومن- خیابان شهید بهشتی – جنب اداره ارشاد",
			"worktime": "شنبه الی پنجشنبه :  7:45 صبح الی 13:15",
			"phone": "01334723871",
			"balad": "https://balad.ir/embed?p=6MidxZ2N9NQWne",
			"googlemap": "https://goo.gl/maps/HtTV83x2ExR6pBK2A",
			"location": "37.2225109,49.314704"
		},
		{
			"name": "مرکز اهدای خون تالش",
			"address": "تالش- خیابان شهید بهشتی – جنب اداره ارشاد",
			"worktime": "شنبه الی پنجشنبه :  7:45 صبح الی 13:15",
			"phone": "01344226464|01344226465|01344226466",
			"balad": "https://balad.ir/embed?p=qVXz2gVv6SSann",
			"googlemap": "https://goo.gl/maps/8NV6tGqnUXEUv8b59",
			"location": "37.7986892,48.9075598"
		},
		{
			"name": "مرکز اهدای خون آستارا",
			"address": "آستارا- خیابان فارابی – محوطه اورژانس قدیم",
			"worktime": "شنبه الی پنجشنبه :  7:45 صبح الی 13:15",
			"phone": "01343829780",
			"balad": "https://balad.ir/embed?p=VRv2wNXQH29IlB",
			"googlemap": "https://goo.gl/maps/UFDHKSUkaW2KDM2x5",
			"location": "38.4357614,48.8736279"
		},
		{
			"name": "مرکز اهدای خون لنگرود",
			"address": "خیابان شریعتی – جنب مرکز بهداشت",
			"worktime": "شنبه الی پنجشنبه :  7:45 صبح الی 13:15",
			"phone": "01342520004",
			"balad": "",
			"googlemap": "",
			"location": ""
		},
		{
			"name": "اداره کل انتقال خون استان گلستان",
			"address": "گرگان- خیابان 5 آذر- اداره کل منطقه ای آموزشی انتقال خون گلستان",
			"worktime": "8صبح الی 19:30 همه روز بغیر از روز های تعطیل | پنحشنبه ها از ساعت8 صبح الی 18:30",
			"phone": "332229224",
			"balad": "https://balad.ir/embed?p=3eJ9DlEOi3Opkj",
			"googlemap": "https://goo.gl/maps/odkFesfi6wew4Tyw6",
			"location": "36.8360294,54.4302392"
		},
		{
			"name": "مرکز اهدای خون گنبدکاووس",
			"address": "گنبدکاووس- خیابان 17 شهریور شرقی –جنب بخشداری",
			"worktime": "8صبح الی 19:30همه روز بغیر از روز های تعطیل | پنحشنبه ها از ساعت8 صبح الی 18:30",
			"phone": "33382905",
			"balad": "https://balad.ir/embed?p=4usrXukcfUNsA4",
			"googlemap": "https://goo.gl/maps/f5LkPi81fToAPnaC9",
			"location": "37.2374369,55.1712802"
		},
		{
			"name": "مرکز اهدای خون علی آباد کتول",
			"address": "علی آباد کتول خیابان امام رضا –کوچه فردوسی 29 ( بنیاد شهیدقدیم)",
			"worktime": "صبح 9الی 13:30 ظهرهمه روز بغیر از روز های تعطیل | پنحشنبه ها از ساعت9 صبح الی 12:30",
			"phone": "3423117",
			"balad": "https://balad.ir/embed?p=GSD5SuX32uA5dK",
			"googlemap": "https://goo.gl/maps/Egb5NsNA9qjeEPXX7",
			"location": "36.9047949,54.8550398"
		},
		{
			"name": "مرکز اهدای خون بندرگز",
			"address": "بندرگز- خیابان اسدی عرب بعدازفرمانداری",
			"worktime": "8:30صبح الی 13:30 ظهر(روز های زوج(شنبه، دوشنبه ، چهارشنبه",
			"phone": "34366430",
			"balad": "",
			"googlemap": "",
			"location": ""
		},
		{
			"name": "مرکز اهدای خون مسجد جامع کردکوی",
			"address": "کردکوی - میدان انقلاب ابتدایی خیابان ولی عصر(عج)جنب مسجد جامع",
			"worktime": "روز های (یکشنبه، سه شنبه ،) از ساعت 9 الی 13 | پنجشنبه از ساعت 9 الی 12:30",
			"phone": "3434644",
			"balad": "https://balad.ir/embed?p=2dGOrOoBgwmEix",
			"googlemap": "https://goo.gl/maps/TzCis3nMvJHJkGj9A",
			"location": "36.7924827,54.1110466"
		},
		{
			"name": "تیم سیار خونگیری آزادشهر",
			"address": "آزادشهر- خیابان رجائی (خیابان شاهرود) - مجتمع مروارید طبقه سوم واحد 213",
			"worktime": "10صبح الی 13 روزهای شنبه و چهارشنبه هرهفته باز می باشد.",
			"phone": "",
			"balad": "https://balad.ir/embed?p=P5mFERUNb0NXhO",
			"googlemap": "https://goo.gl/maps/zDHffeG63DL8epj69",
			"location": "37.087083,55.1770213"
		},
		{
			"name": "تیم سیار خونگیری شهدای منا",
			"address": "آق قلا- روبروی پل جدید جنب پارک کودک",
			"worktime": "8:30صبح الی 13:30 ظهر روز های فرد (یکشنبه، سه شنبه ، پنجشنبه)",
			"phone": "",
			"balad": "",
			"googlemap": "",
			"location": ""
		},
		{
			"name": "اداره کل انتقال خون استان همدان",
			"address": "همدان- میدان فلسطین- بلوار غبار همدانی",
			"worktime": "8 صبح الی 19 عصر",
			"phone": "08134228008",
			"balad": "https://balad.ir/embed?p=PZ7DQMcRDlV8QW",
			"googlemap": "https://goo.gl/maps/sxY4g2Z3rkzgzSGF7",
			"location": "34.8058717,48.5013024"
		},
		{
			"name": "مرکز اهدای خون ملایر",
			"address": "ملایر- ابتدای بلوار سیف الدوله- پایگاه شهری شماره 1 (فخریه)",
			"worktime": "",
			"phone": "08132220078",
			"balad": "https://balad.ir/embed?p=2ltzyulEFFcOhw",
			"googlemap": "https://goo.gl/maps/o7iG6ub7kXTANzWF8",
			"location": "34.298866,48.8234031"
		},
		{
			"name": "اداره کل انتقال خون هرمزگان",
			"address": "خیابان شهید نظری – حدفاصل چهارراه مرادی و فلکه برق روبروی آموزش و پرورش ناحیه 2",
			"worktime": "شنبه تا پنجشنبه 7:30 صبح تا 19:30",
			"phone": "07632228032",
			"balad": "https://balad.ir/embed?p=Pt3fAhAt3rQuUK",
			"googlemap": "https://goo.gl/maps/T72xmK6qK6abHNfc8",
			"location": "27.1825865,56.276204"
		},
		{
			"name": "پایگاه انتقال خون بندرلنگه",
			"address": "خیابان طالقانی – جنب بانک ملی مرکزی",
			"worktime": "شنبه تا پنجشنبه 8 صبح تا 13:30",
			"phone": "07644221981",
			"balad": "https://balad.ir/embed?p=uxJ9UL5FnM8aBQ",
			"googlemap": "https://goo.gl/maps/fUic5dmyxCbTHCfZ9",
			"location": "26.5544667,54.8867911"
		},
		{
			"name": "پایگاه انتقال خون میناب",
			"address": "بلوار امام خمینی (ره) – نرسیده به شهرداری - نبش کوچه 15",
			"worktime": "شنبه تا پنجشنبه 8 صبح تا 13:30",
			"phone": "07642228211",
			"balad": "https://balad.ir/embed?p=ypmyyxEQrcJ447",
			"googlemap": "https://goo.gl/maps/TdKTF8gXUiW8NfXa6",
			"location": "27.1437204,57.0777367"
		},
		{
			"name": "مرکز اهدای خون قشم",
			"address": "خیابان فرمانداری – روبروی فرمانداری شهرستان قشم",
			"worktime": "شنبه تا پنجشنبه 16:30الی 20:30",
			"phone": "07635222010",
			"balad": "https://balad.ir/embed?p=44B9r9gy0hEbwo",
			"googlemap": "https://goo.gl/maps/mqTG8GXLBopMeEQw8",
			"location": "26.962194, 56.262341"
		},
		{
			"name": "اداره کل انتقال خون استان ایلام",
			"address": " ایلام- خیابان سعدی جنوبی- جنب اورژانس",
			"worktime": "همه روزه غیر از جمعه ها | از ساعت 8 صبح الی 19 بعدازظهر",
			"phone": "08433333143",
			"balad": "https://balad.ir/embed?p=Pj0WWizaM2kLdL",
			"googlemap": "https://goo.gl/maps/nVtJFpRayyXExd116",
			"location": "33.637319,46.4206296"
		},
		{
			"name": "اداره کل انتقال خون استان کرمان",
			"address": "بلوار 22 بهمن - چهارراه شعبانیه",
			"worktime": "همه روزه 7:30 صبح الی 19:30 | پنج شنبه ها  7:30 صبح الی 18  ",
			"phone": "01833230712",
			"balad": "https://balad.ir/embed?p=5ZrGhlU2xe1t9G",
			"googlemap": "https://goo.gl/maps/mvMccB3RCcayR9yq5",
			"location": "30.2751188,57.0865358"
		},
		{
			"name": "مرکز اهدای خون آزادی",
			"address": "بلوارجمهوری اسلامی – جنب دانشگاه امام حسین",
			"worktime": "روزهای فرد از 7:30 الی 13:30  به جز پنج شنبه ها 7:30 صبح الی 12:30",
			"phone": "",
			"balad": "https://balad.ir/embed?p=2AMWZyaKzFMskw",
			"googlemap": "https://goo.gl/maps/THnbnWxzUqYxW15B9",
			"location": "30.2866749,57.0479109"
		},
		{
			"name": "مرکز اهدای خون جیرفت",
			"address": "جیرفت- چهارراه بیمارستان امام خمینی (ره) – خیابان شفا بعد از اورژانس بیمارستان امام خمینی (ره)",
			"worktime": "همه روزه 7:30 صبح الی 13:30  ",
			"phone": "0443318003",
			"balad": "https://balad.ir/embed?p=6U2Ef3H0jX6DXG",
			"googlemap": "https://goo.gl/maps/xP9qNuxReU1QBCLm7",
			"location": "28.6805321,57.7477622"
		},
		{
			"name": "مرکز اهدای خون بم",
			"address": "میدان 17 شهریور – خیابان طالقانی – بعد از اداره بهزیستی",
			"worktime": "همه روزه 7:30 صبح الی 13:30",
			"phone": "04644221444",
			"balad": "https://balad.ir/embed?p=P1gQsSJSI9jTDs",
			"googlemap": "https://goo.gl/maps/DSR66sKpdLnjFDNu7",
			"location": "29.0944747,58.3513086"
		},
		{
			"name": "مرکز اهدای خون سیرجان",
			"address": "میدان انقلاب -پایگاه انتقال خون شهرستان سیرجان",
			"worktime": "همه روزه 7:30 صبح الی 13:30",
			"phone": "42200888|42205240",
			"balad": "https://balad.ir/embed?p=Y2bmH8axrs7YNX",
			"googlemap": "https://goo.gl/maps/YLenLU1Ly1DznL356",
			"location": "29.4490677,55.6661405"
		},
		{
			"name": "مرکز اهدای خون رفسنجان",
			"address": "بلوار طالقانی – روبروی شرکت سپه - جنب هتل هیلان - پایگاه انتقال خون شهرستان رفسنجان.",
			"worktime": "همه روزه 7:30 صبح الی 13:30",
			"phone": "34259226|34256104",
			"balad": "https://balad.ir/embed?p=qQV8b2HGbwQKSL",
			"googlemap": "https://goo.gl/maps/qRtizzU1KEhkJEN59",
			"location": "30.4019287,55.9855912"
		},
		{
			"name": "اداره کل انتقال خون استان کرمانشاه",
			"address": "بلوار شهید بهشتی",
			"worktime": "همه روزه 07:30 الی 18:30",
			"phone": "08338239250",
			"balad": "https://balad.ir/embed?p=6xfAnluYUQwXlC",
			"googlemap": "https://goo.gl/maps/92pnpR65ogMpnJJz5",
			"location": "34.3324165,47.0840226"
		},
		{
			"name": "پایگاه کنگاور (تیم سیار)",
			"address": "جنب بیمارستان شهید چمران",
			"worktime": "روزهای چهارشنبه  اول هر ماه 8 الی 13",
			"phone": "08338239593",
			"balad": "https://balad.ir/embed?p=1fS9UcvthjJTWV",
			"googlemap": "https://goo.gl/maps/68Q8NkAnR2ypxidt7",
			"location": "34.4994286,47.9448915"
		},
		{
			"name": "پایگاه قصرشیرین (تیم سیار)",
			"address": "جنب فرمانداری",
			"worktime": "روزهای چهارشنبه 8 الی 13",
			"phone": "08338239593",
			"balad": "",
			"googlemap": "",
			"location": ""
		},
		{
			"name": "جنب بیمارستان امام خمینی",
			"address": "روزهای یکشنبه  اول هر ماه 8 ال 13",
			"worktime": "",
			"phone": "08338238829",
			"balad": "https://balad.ir/embed?p=PMFaIVBCyaiqZC",
			"googlemap": "https://goo.gl/maps/T8oFAmP4uoUeRubM6",
			"location": "34.3127466,47.0514265"
		},
		{
			"name": "مرکز اهدای خون امام رضا (ع)",
			"address": "مشهد- میدان شریعتی ابتدای خیابان دانشگاه",
			"worktime": "ساعت 7:45 الی 13:00 | 14:00 الی 18:45",
			"phone": "05138516300",
			"balad": "https://balad.ir/embed?p=1NOtypss32wYCN",
			"googlemap": "https://goo.gl/maps/QH2Bjk8Gze5hNaxq5",
			"location": "32.7525303,51.6793577"
		},
		{
			"name": "مرکز اهدای خون شهید سلیمانی",
			"address": "مشهد- بلوار استقلال بین استقلال 2 و4",
			"worktime": "7:45 الی 13:00 ",
			"phone": "05136053117",
			"balad": "https://balad.ir/embed?p=5XKkzMQf8eT6GJ",
			"googlemap": "https://goo.gl/maps/xz22ACoLFZagPwSw8",
			"location": "36.3268287,59.5367725"
		},
		{
			"name": "مرکز اهدای خون شهید کریمی",
			"address": "مشهد- قاسم آباد نبش شریعتی 28",
			"worktime": "7:45 الی 13:00",
			"phone": "05136631752",
			"balad": "https://balad.ir/embed?p=4exXGvAxhuJAlY",
			"googlemap": "https://goo.gl/maps/SsVaXKuH43xDQxcy7",
			"location": "36.3525352,59.5165463"
		},
		{
			"name": "مرکز اهدای خون امید",
			"address": "مشهد- خیابان شیرازی نبش شیرازی3 مجتمع امید طبقه منهای یک",
			"worktime": "7:45 الی 13:00",
			"phone": "05132224619",
			"balad": "https://balad.ir/embed?p=P503XsoRA0mm6r",
			"googlemap": "https://goo.gl/maps/s53Gdy4Vj1Vax5Qe9",
			"location": "36.2919974,59.6105323"
		},
		{
			"name": "مرکز اهدای خون ثامن",
			"address": "مشهد- بازارچه شهید آستانه پرست پارکینگ 4 حرم مطهر (موقتا تعطیل)",
			"worktime": "7:45 الی 13:00",
			"phone": "05132256554",
			"balad": "https://balad.ir/embed?p=6yOJGBNZGyin76",
			"googlemap": "https://goo.gl/maps/DvpRpCSjF7HhkD3k7",
			"location": "36.2881828,59.6124432"
		},
		{
			"name": "مرکز اهدای خون مهر",
			"address": "مشهد- بلوار ابوطالب نبش ابوطالب 33",
			"worktime": "7:45 الی 13:00",
			"phone": "05137293144",
			"balad": "https://balad.ir/embed?p=1oLop6cQuGBytm",
			"googlemap": "https://goo.gl/maps/ZZ9jc6aRdxEsTjvf6",
			"location": "36.3251556,59.5926407"
		},
		{
			"name": "مرکز اهدای خون قوچان",
			"address": "قوچان- خیابان ولی عصر- بلوار مصلی- بعد چهارراه - روبروی مصلی",
			"worktime": "08:00 الی 12:30",
			"phone": "05147224114|05147246600",
			"balad": "https://balad.ir/embed?p=v5huq4VV16u29G",
			"googlemap": "https://goo.gl/maps/8wLXLaPktMq8dZSd6",
			"location": "37.09725,58.5049526"
		},
		{
			"name": "مرکز اهدای خون تربت حیدریه",
			"address": "تربت حیدریه- خیابان شهید رجائی-نبش رجائی11",
			"worktime": "08:00 الی 12:30",
			"phone": "05152274350|05152274351",
			"balad": "https://balad.ir/embed?p=P2EsEFvgTAAdEI",
			"googlemap": "https://goo.gl/maps/jAMQGRGGb97yV1oB6",
			"location": "35.2690795,59.2201509"
		},
		{
			"name": "مرکز اهدای خون سبزوار",
			"address": "سبزوار- میدان شریعتی-ابتدای خیابان پاسداران-بالاتر از اداره اوقاف",
			"worktime": "08:00 الی 12:30",
			"phone": "05144641655|05144649020",
			"balad": "https://balad.ir/embed?p=5tNHDix6Arrvpw",
			"googlemap": "",
			"location": ""
		},
		{
			"name": "مرکز اهدای خون نیشابور",
			"address": "نیشابور- خیابان امام خمینی-امام خمینی17",
			"worktime": "08:00 الی 12:30",
			"phone": "05143334122|05143336922",
			"balad": "https://balad.ir/embed?p=5gqhYQUfWF7pOV",
			"googlemap": "https://goo.gl/maps/jkZUshhkDADLSoFK8",
			"location": "36.2081937,58.7901142"
		},
		{
			"name": "مرکز اهدای خون گناباد",
			"address": "گناباد- خیابان امام خمینی- امام خمینی 2",
			"worktime": "08:00 الی 12:30",
			"phone": "05157229440|05157228573|05157229944",
			"balad": "https://balad.ir/embed?p=6bHmw2cgw4hFqM",
			"googlemap": "https://goo.gl/maps/FzJiKTh4A9J7Youz5",
			"location": "34.3506049,58.6816039"
		},
		{
			"name": "مرکز اهدای خون تربت جام",
			"address": "تربت جام- بلوار خلیج فارس- شبکه کارگر- جنب مرکزمعلولین",
			"worktime": "فقط روزهای یکشنبه و چهارشنبه 08:00 الی 11:30",
			"phone": "05152534123",
			"balad": "https://balad.ir/embed?p=R7JLq71hKVq5Jq",
			"googlemap": "https://goo.gl/maps/H9CL1SEEyco9zHKUA",
			"location": "35.2582227,60.6241442"
		},
		{
			"name": "مرکز اهدای خون کاشمر",
			"address": "کاشمر- خیابان سلطانیه-بین سلطانیه3 و5 روبروی حسینیه حیدری",
			"worktime": "08:00 الی 12:30",
			"phone": "05155240115",
			"balad": "https://balad.ir/embed?p=Iu4Tf4VBDHRe99",
			"googlemap": "https://goo.gl/maps/bNtBAQ3YKLFSKMaY6",
			"location": "35.2352919,58.4619087"
		},
		{
			"name": "مرکز اهدای خون اهواز",
			"address": "اهواز- بلوار پاسداران –جنب شهرداری منطقه 7",
			"worktime": "ازشنبه تاچهارشنبه 7:45  الی 19:30 | پنج شنبه  45 : 7  الی  30: 18 | جمعه  8 الی 13",
			"phone": "06132268630",
			"balad": "https://balad.ir/embed?p=5DzuU60Ys3tJWN",
			"googlemap": "https://goo.gl/maps/3C64ooCrNMaVV7rj6",
			"location": "31.3331977,48.6550709"
		},
		{
			"name": "مرکز اهدای خون جامع امانیه",
			"address": "اهواز- امانیه – خ فلسطین – جنب بیمارستان رازی",
			"worktime": " از شنبه تا چهارشنبه 7:45   الی 30 : 19 | پنج شنبه 45 : 7  الی 30 : 18 | جمعه  8   الی   13",
			"phone": "06133335983",
			"balad": "https://balad.ir/embed?p=5DzuU60Ys3tJWN",
			"googlemap": "https://goo.gl/maps/3C64ooCrNMaVV7rj6",
			"location": "31.3331977,48.6550709"
		},
		{
			"name": "مرکز اهدای خون بهبهان",
			"address": "بهبهان- خیابان پیروز روبروی درمانگاه ابن سینا",
			"worktime": "شنبه  الی چهارشنبه 7:45 الی19:30 | پنجشنبه 45 :7 الی18:30",
			"phone": "06152835699",
			"balad": "https://balad.ir/embed?p=Hv4tsdpARCKKDV",
			"googlemap": "https://goo.gl/maps/19ViuYSYXHa4MYye7",
			"location": "30.5961552,50.2343952"
		},
		{
			"name": "مرکز اهدای خون ایذه",
			"address": "ایذه- خیابان آیت اله طالقانی روبروی درمانگاه امید",
			"worktime": "شنبه الی چهارشنبه  7:45  الی  13 | پنجشنبه  45: 7 الی  12",
			"phone": "436-061 5222728",
			"balad": "https://balad.ir/embed?p=6yYhRNo64iYGpX",
			"googlemap": "https://goo.gl/maps/1hvs1wcp2BZYtqZeA",
			"location": "31.8302309,49.8697961"
		},
		{
			"name": "مرکز اهدای خون دزفول",
			"address": "دزفول- خیابان حضرت رسول نبش شریعتی",
			"worktime": "شنبه الی چهارشنبه 7:45 الی  13 | پنجشنبه  7:45   الی12 ",
			"phone": "06142221911",
			"balad": "https://balad.ir/embed?p=PxXqVyKmdWY8ow",
			"googlemap": "https://goo.gl/maps/zYLoXZpt3shi8BQ57",
			"location": "32.3803555,48.4048317"
		},
		{
			"name": "مرکز اهدای خون مسجد سلیمان",
			"address": "مسجد سلیمان- خیابان آزادی –پشت درمانگاه ولی عصر",
			"worktime": "شنبه الی چهارشنبه 7:45 الی13:30  | پنجشنبه 7:45الی 12",
			"phone": "06143224600",
			"balad": "https://balad.ir/embed?p=VyBHSkMf6UwXn3",
			"googlemap": "https://goo.gl/maps/YXChRutbSWCZPJDb9",
			"location": "30.3388754,48.2923741"
		},
		{
			"name": "مرکز اهدای خون آبادان",
			"address": "آبادان- بلوار ولایت –نبش خیابان باشگاه",
			"worktime": "شنبه تا چهارشنبه  7:45 الی13:30 و 16    الی 30: 19 | پنجشنبه  7:45 الی 12",
			"phone": "06153328693",
			"balad": "https://balad.ir/embed?p=6V6mYzce6ZXmYE",
			"googlemap": "https://goo.gl/maps/nvBrx9fhZNASy36K6",
			"location": "30.3390836,48.2935776"
		},
		{
			"name": "مرکز اهدای خون خرمشهر",
			"address": "خرمشهر- بلوار آیت اله خامنه ای-خ 40 متری جنب درمانگاه امام رضا (ع)",
			"worktime": "شنبه تا چهارشنبه 8     الی12:30 | پنجشنبه 8     الی 11:30",
			"phone": "06153526026",
			"balad": "https://balad.ir/embed?p=6CFBwzogX2pJXu",
			"googlemap": "https://goo.gl/maps/YNqZiuEPbEoM3ACY7",
			"location": "30.4439886,48.172416"
		},
		{
			"name": "مرکز اهدای خون شوشتر",
			"address": "شوشتر- خیابان آیت اله طالقانی جنب درمانگاه پاپهن",
			"worktime": "شنبه تا چهارشنبه 7:45 الی 13 | پنجشنبه 7:45 الی12",
			"phone": "06136229886",
			"balad": "https://balad.ir/embed?p=4o5KTpiW8BUSXu",
			"googlemap": "https://goo.gl/maps/nJTQYJKKyyyvSz5dA",
			"location": "32.0455499,48.8518482"
		},
		{
			"name": "مرکز اهدای خون اندیمشک",
			"address": "اندیمشک- خیابان انقلاب پشت فرمانداری –جنب راهنمایی رانندگی",
			"worktime": "شنبه تا چهار شنبه 7:45 الی  13 | پنجشنبه 7:45 الی 12",
			"phone": "06142690753",
			"balad": "https://balad.ir/embed?p=6vxtwv50Urck11",
			"googlemap": "https://goo.gl/maps/YE9EwdhRuDtwspo98",
			"location": "32.4747313,48.3499609"
		},
		{
			"name": "مرکز اهدای خون یاسوج",
			"address": "یاسوج، بلوارشهید مطهری، نبش شهدا 7 ، خیابان اهدا خون",
			"worktime": "شنبه الی چهارشنبه ساعت 8 الی 13 | پنج شنبه ساعت 8 الی 12",
			"phone": "07433229110",
			"balad": "https://balad.ir/embed?p=2CNriQroOdL4lM",
			"googlemap": "https://goo.gl/maps/4uPZqHeoz7BT9Ntv7",
			"location": "30.6749421,51.5885469"
		},
		{
			"name": "مرکز اهدای خون دهدشت",
			"address": "دهدشت، جنب بیمارستان امام خمینی",
			"worktime": "شنبه الی پنج شنبه ساعت 8:30 الی 10:30",
			"phone": "07432270422",
			"balad": "https://balad.ir/embed?p=XBpJ2ABuhvLd9c",
			"googlemap": "https://goo.gl/maps/CfRWePeCWhfe6XTNA",
			"location": "30.80309,50.5678399"
		},
		{
			"name": "مرکز اهدای خون گچساران",
			"address": "گچساران، جنب بیمارستان شهید رجایی",
			"worktime": "شنبه الی چهارشنبه ساعت 8 الی 12 | پنج شنبه ساعت 8 الی 11",
			"phone": "07432222013",
			"balad": "https://balad.ir/embed?p=Nf9fEUTZpRFwBD",
			"googlemap": "https://goo.gl/maps/jAvKsnEF3fVK65Sz8",
			"location": "30.3512819,50.7939898"
		},
		{
			"name": "اداره کل انتقال خون استان کردستان",
			"address": "سنندج- خیابان پاسداران- سه راهی حافظ",
			"worktime": "هر روز از ساعت 8 صبح الی 18",
			"phone": "08733245271",
			"balad": "https://balad.ir/embed?p=3E0DwqROiiCJfB",
			"googlemap": "https://goo.gl/maps/bp4EoHGjwxi1G3nB9",
			"location": "35.3065607,46.9977362"
		},
		{
			"name": "مرکز اهدای خون سقز",
			"address": "سقز- خیابان ملت (ساحلی قدیم)- روبروی پارک مولوی- نبش ک باستان",
			"worktime": "هر روز از ساعت 7:30 صبح الی 12",
			"phone": "08736217302",
			"balad": "https://balad.ir/embed?p=4sRGLI8UeCfoz3",
			"googlemap": "https://goo.gl/maps/5msN3SAeqrxAzcp2A",
			"location": "36.2465189,46.0762607"
		},
		{
			"name": "اداره کل انتقال خون استان لرستان - خرم آباد",
			"address": "بلوار شهید شفیع پور (60 متری)- خیابان پوریای ولی-جنب استخر کوثر",
			"worktime": "هر روز از ساعت 7:30 صبح تا 18 عصر در دو شیفت کاری",
			"phone": "06633229971|06633229972",
			"balad": "https://balad.ir/embed?p=2FNGBvZY4FmRZu",
			"googlemap": "https://goo.gl/maps/2mgy72oUkRUKNnTk9",
			"location": "33.5091141,48.3484455"
		},
		{
			"name": "مرکز اهدای خون علوی (میدان امام) - خرم آباد",
			"address": "میدان امام خمینی- به طرف ساحلی",
			"worktime": "هر روز از 7:30 لغایت 13",
			"phone": "06633428881",
			"balad": "https://balad.ir/embed?p=4EUFedhoEzTzoQ",
			"googlemap": "https://goo.gl/maps/mw7KdTJxt8u7cRvc7",
			"location": "33.4744702,48.3313248"
		},
		{
			"name": "مرکز اهدای خون بروجرد",
			"address": "خیابان تختی-خیابان اوستا جنوبی-روبروی اداره ارشاد اسلامی",
			"worktime": "هر روز از ساعت 7:30 صبح تا 18 عصر در دو شیفت کاری",
			"phone": "06642508808|06642508809",
			"balad": "https://balad.ir/embed?p=4KWpYGEvyZW2gq",
			"googlemap": "https://goo.gl/maps/QVGMQns2BCzc5ESz9",
			"location": "33.5187274,48.3599335"
		},
		{
			"name": "مرکز اهدای خون هادی لویی - الیگودرز",
			"address": "خیابان امام- خیابان شهید عسگری- کوچه انتقال خون",
			"worktime": "هر روز از 7:30 لغایت 13",
			"phone": "06643345512",
			"balad": "https://balad.ir/embed?p=PH140zayiUsSvd",
			"googlemap": "https://goo.gl/maps/n3Gmhd71mZwMTbZj8",
			"location": "33.3990732,49.6928768"
		},
		{
			"name": "اداره کل انتقال خون استان مرکزی",
			"address": "اراک-خیابان شهید شیرودی(خرم)",
			"worktime": "هر روز به جز روزهای تعطیل | صبح :13-8 | عصر: 19-14",
			"phone": "08632248031|08632248032|08632248033",
			"balad": "https://balad.ir/embed?p=6gSzqeRnQxrUYK",
			"googlemap": "https://goo.gl/maps/QENFjxr1v4E7rCAq8",
			"location": "34.0808587,49.7084967"
		},
		{
			"name": "مرکز اهدای خون شهید رجایی",
			"address": "اراک-خیابان شهید رجایی(ملک)، کوچه شهید توسطی",
			"worktime": "هر روز به جز روزهای تعطیل صبح :13-8",
			"phone": "08632240668",
			"balad": "",
			"googlemap": "https://goo.gl/maps/B8s6qSwhaCqmYSkG8",
			"location": "34.0848508,49.6881307"
		},
		{
			"name": "مرکز اهدای خون ساوه",
			"address": "ساوه-خیابان مطهری-میدان مدرس",
			"worktime": "هر روز به جز روزهای تعطیل صبح :13-8",
			"phone": "08642222320|08642222690",
			"balad": "https://balad.ir/embed?p=PfEvFrVeyUBKIf",
			"googlemap": "https://goo.gl/maps/66JR9ZbS82m9DoXeA",
			"location": "35.0229794,50.3643008"
		},
		{
			"name": "مرکز اهدای خون خمین",
			"address": "خمین-خیابان تختی، ساختمان معاونت غذا و دارو دانشگاه علوم پزشکی خمین",
			"worktime": "شنبه صبح 8 الی 12",
			"phone": "08646232954|09126954267",
			"balad": "https://balad.ir/embed?p=7bkNC7ZEiI4ulI",
			"googlemap": "https://goo.gl/maps/AJnE6uAU8UgNrSiy6",
			"location": "33.6211112,50.0631852"
		},
		{
			"name": "مرکز اهدای خون دلیجان",
			"address": "دلیجان-خیابان امام-کوچه 17 شهریور",
			"worktime": "یکشنبه صبح 8 الی 12",
			"phone": "08644228810|09183652203",
			"balad": "https://balad.ir/embed?p=xdTfQC5x9F3qvR",
			"googlemap": "https://goo.gl/maps/LWxXk7WEBfXMx2VA8",
			"location": "33.9875356,50.6875851"
		},
		{
			"name": "مرکز اهدای خون تفرش",
			"address": "تفرش-خیابان شهید فیاض بخش-بیمارستان والفجر",
			"worktime": "دوشنبه صبح 8 الی 13",
			"phone": "08636225444|09188633548",
			"balad": "https://balad.ir/embed?p=eAZdJbSU3WWeXz",
			"googlemap": "https://goo.gl/maps/iZ93LLxzmRA97eca7",
			"location": "34.698275,49.9996306"
		},
		{
			"name": "مرکز اهدای خون محلات",
			"address": "محلات-خیابان شهید محلاتی،خیابان شهید رجایی غربی،درمانگاه امام حسن",
			"worktime": "سه شنبه صبح 8 الی 12",
			"phone": "08643232823|09183692137",
			"balad": "https://balad.ir/embed?p=RBb6QUmfWaHS6k",
			"googlemap": "https://goo.gl/maps/LJkcXkemCwuSWT6fA",
			"location": "33.9018155,50.4542614"
		},
		{
			"name": "مرکز اهدای خون آشتیان",
			"address": "آشتیان-خیابان شهید باهنر، شبکه بهداشت و درمان آشتیان",
			"worktime": "چهارشنبه صبح 8 الی 12",
			"phone": "08637222615|09188617029",
			"balad": "https://balad.ir/embed?p=qyCqk5WDjjHv7v",
			"googlemap": "https://goo.gl/maps/4HdrXBTxytqPdu9s5",
			"location": "34.5270132,50.0029213"
		},
		{
			"name": "مرکز اهدای خون ساری",
			"address": "بلوارارتش، جنب بیمارستان قلب فاطمه زهرا(س) ، اداره کل انتقال خون استان",
			"worktime": "شنبه تا چهارشنبه از ساعت 7:30 تا 18:30 | پنج شنبه ها از ساعت 7:30 تا 17:30",
			"phone": "01133323010",
			"balad": "https://balad.ir/embed?p=2igMiZjz4ztdKg",
			"googlemap": "https://goo.gl/maps/veDrXQW86hf6t9Vb7",
			"location": "36.5557065,53.0580313"
		},
		{
			"name": "مرکز اهدای خون آمل",
			"address": "بلوارآیت الله طالقانی، روبروی آتش نشانی",
			"worktime": "شنبه تا چهارشنبه 7:30 تا 17 | پنج شنبه ها 7:30 تا 13",
			"phone": "01144223013",
			"balad": "https://balad.ir/embed?p=5gKIFg5WBZgFGy",
			"googlemap": "https://goo.gl/maps/krJGBojdMhmFTvjV8",
			"location": "36.4584751,52.3498374"
		},
		{
			"name": "مرکز اهدای خون بابل",
			"address": "کمربندی شرقی، ابتدای خیابان شهید محبوبی",
			"worktime": "شنبه تا چهارشنبه 7:30 تا 18 | پنج شنبه 7:30 تا 13",
			"phone": "01132371055",
			"balad": "https://balad.ir/embed?p=P9nkCJHUguduwh",
			"googlemap": "https://goo.gl/maps/zychpMM9CyZ3EMiu5",
			"location": "36.5502157,52.6891744"
		},
		{
			"name": "مرکز اهدای خون تنکابن",
			"address": "خیابان جمهوری،خیابان برادران شهید ابراهیمی",
			"worktime": "شنبه تا چهارشنبه 7:30 تا 13:30 | پنج شنبه ها 7:30 تا 12:30",
			"phone": "01154237020",
			"balad": "https://balad.ir/embed?p=2qAyCqt1Rkbvyo",
			"googlemap": "https://goo.gl/maps/nRYaFtvkEBj2Zwx86",
			"location": "36.8114789,50.8835425"
		},
		{
			"name": "مرکز اهدای خون چالوس",
			"address": "خیابان 17 شهریور، روبروی اداره پست",
			"worktime": "شنبه تا چهارشنبه 7:30 تا 13:30 | پنج شنبه ها 7:30 تا 12:30",
			"phone": "01152225318",
			"balad": "https://balad.ir/embed?p=6jthrbI6SogA2L",
			"googlemap": "https://goo.gl/maps/coYetUoGYSWuaZYC6",
			"location": "36.6500431,51.4219822"
		},
		{
			"name": "مرکز اهدای خون رامسر",
			"address": "کمربندی فاز 2، جنب مسجد امام رضا(ع)",
			"worktime": "شنبه تا پنج شنبه 7:30 الی 12:30",
			"phone": "01155226760",
			"balad": "https://balad.ir/embed?p=2Og3yngoDspNto",
			"googlemap": "https://goo.gl/maps/XQMdvf4rBNEpTN688",
			"location": "36.9148837,50.6525761"
		},
		{
			"name": "مرکز اهدای خون نور",
			"address": "بعد از پلیس راه، شهرک شهید بهشتی ، جنب دانشگاه مازیار",
			"worktime": "یکشنبه و سه شنبه هرهفته 7:30 الی 12",
			"phone": "01144524121",
			"balad": "https://balad.ir/embed?p=V6JTEuQv55xEsa",
			"googlemap": "https://goo.gl/maps/t3xJ7rwzmg8vzkWc9",
			"location": "36.1557177,51.6214477"
		},
		{
			"name": "مرکز اهدای خون قائم شهر",
			"address": "بعد از پل تلار، ابتدای جاده نظامی",
			"worktime": "شنبه تا پنج شنبه 8 الی 12",
			"phone": "01142293787",
			"balad": "https://balad.ir/embed?p=3LTh4QFUisRCtY",
			"googlemap": "https://goo.gl/maps/ePyAEDxXMcefBWMU8",
			"location": "36.4796339,52.8119821"
		},
		{
			"name": "مرکز اهدای خون بهشهر",
			"address": "بلوار شهید هاشمی نژاد، قبل از میدان قدس",
			"worktime": "شنبه تا چهارشنبه 7:30 تا 13:30 | پنج شنبه ها از 7:30 تا 12:30",
			"phone": "01134567474",
			"balad": "https://balad.ir/embed?p=Cy6u4EpunyQGBu",
			"googlemap": "https://goo.gl/maps/pZTwFfcT4oWpWzHg7",
			"location": "36.6862695,53.5603974"
		},
		{
			"name": "مرکز اهدای خون گلوگاه",
			"address": "بلوار امام رضا (ع)، بعد از چهار راه راه آهن، کوچه شهید ایرج امیرخانلو",
			"worktime": "چهارشنبه ها از 9 تا 12:30",
			"phone": "01134660240",
			"balad": "",
			"googlemap": "",
			"location": ""
		},
		{
			"name": "مرکز اهدای خون جویبار",
			"address": "میدان کشتی، کوچه خلیلی، پشت اورژانس",
			"worktime": "دوشنبه و پنج شنبه ها از 8:45 تا 12",
			"phone": "01142532360",
			"balad": "",
			"googlemap": "https://goo.gl/maps/c6HFUHDr1r2ZT4hv8",
			"location": "36.6391162,52.9036523"
		},
		{
			"name": "مرکز اهدای خون بجنورد",
			"address": "میدان دفاع مقدس روبروی استانداری",
			"worktime": "شنبه تا چهارشنبه از ساعت ۷:۳۰ الی ۱۳:۳۰ | پنجشنبه ها از ساعت ۷:۳۰ الی۱۲:۳۰",
			"phone": "05832237116",
			"balad": "https://balad.ir/embed?p=46CEXEHLtswbiU",
			"googlemap": "https://goo.gl/maps/1ywe3sWSKpYBUM5z5",
			"location": "37.4615109,57.3300351"
		},
		{
			"name": "مرکز اهدای خون شیروان",
			"address": "شیروان- بلوار استقلال جنب شورای حل اختلاف",
			"worktime": "شنبه تا چهارشنبه از ساعت ۷:۳۰الی۱۲:۳۰ | پنجشنبه ها از ساعت ۷:۳۰ الی ۱۱:۳۰",
			"phone": "05836347862",
			"balad": "https://balad.ir/embed?p=6mg5tJmeeVtqLh",
			"googlemap": "https://goo.gl/maps/ZnZDDhQdp1F7tTsM8",
			"location": "37.4158238,57.9146794"
		},
		{
			"name": "مرکز اهدای خون قزوین",
			"address": "قزوین- سرپل طالقانی نبش آیت اله کاشانی",
			"worktime": "ایام هفته به جز جمعه ها از ساعت 8 الی 20 | روزهای جمعه از 9 الی 13",
			"phone": "02833230196",
			"balad": "https://balad.ir/embed?p=4TRpxd5eL3Akh0",
			"googlemap": "https://goo.gl/maps/sr9HBiwM2uXkEE1f9",
			"location": "36.2673939,50.0108811"
		},
		{
			"name": "مرکز اهدای خون تاکستان",
			"address": "تاکستان- بلوار امام خمینی بین چهارراه غفاری و چهارراه بانک ملی",
			"worktime": "روزهای هفته به جز جمعه ساعت 8 الی 13",
			"phone": "02835247232",
			"balad": "https://balad.ir/embed?p=fRHqC5uzX87jEf",
			"googlemap": "https://goo.gl/maps/ui5Q8wAxvWKDFoE66",
			"location": "36.0689198,49.6960884"
		},
		{
			"name": "سامانه سیار خونگیری بوئین زهرا",
			"address": "بوئین زهرا- معلم شرقی محوطه داخل ساختمان هلال احمر",
			"worktime": "روز سه شنبه هر هفته 8:30 الی 13",
			"phone": "",
			"balad": "https://balad.ir/embed?p=1kg0kMWRoB00aw",
			"googlemap": "https://goo.gl/maps/RaMcF5GZ4EeN1eWE7",
			"location": "35.7652815,45.5671109"
		},
		{
			"name": "مرکز ثابت اهدای خون مرکزی ویژه آقایان",
			"address": "بلوار 15 خرداد تقاطع عمار و یاسر",
			"worktime": "هر روز به غیر از روزهای تعطیل | از ساعت7:30 لغایت13:30 (پنج شنبه ها تا 13)  | روزهای یک شنبه ها و سه شنبه ها تا ساعت 18",
			"phone": "025377295350",
			"balad": "https://balad.ir/embed?p=323XyuOYBzhKJW",
			"googlemap": "https://goo.gl/maps/c2sc265WKakw8zA27",
			"location": "34.6512502,50.8979698"
		},
		{
			"name": "مرکز اهدای خون حضرت روح ا...",
			"address": "قم- میدان روح ا... جنب دبیرستان ماندگار امام صادق(ع)",
			"worktime": "هر روز به غیر از روزهای تعطیل | از ساعت 7:30 الی 13:30  | پنج شنبه ها تا 12:30",
			"phone": "02537735020",
			"balad": "https://balad.ir/embed?p=3lqz6IANVQ3fxE",
			"googlemap": "https://goo.gl/maps/c2sc265WKakw8zA27",
			"location": "34.6512502,50.8979698"
		},
		{
			"name": "مرکز اهدای خون امام رضا(ع) سمنان",
			"address": "سمنان-بلوار معلم شرقی قبل از میدان امام رضا(ع)",
			"worktime": "روزهای فرد7:30 الی 13:30 | روز های زوج 7:30 الی19",
			"phone": "02333322325",
			"balad": "https://balad.ir/embed?p=6HFKRV6galkhrm",
			"googlemap": "https://goo.gl/maps/E7LpsSrxA9Ec5Xxn6",
			"location": "35.5834548,53.3991981"
		},
		{
			"name": "مرکز اهدای خون شاهرود",
			"address": "شاهرود- خیابان امام نبش شیخ بهایی",
			"worktime": "7:30 الی 13:30",
			"phone": "02332221217",
			"balad": "https://balad.ir/embed?p=qTxWewthU8Fudr",
			"googlemap": "https://goo.gl/maps/9WeYgXujQDrNdvc66",
			"location": "36.4208513,54.9732599"
		},
		{
			"name": "مرکز اهدای خون دامغان",
			"address": "دامغان- خیابان شهید مفتح",
			"worktime": "7:30 الی 13:30",
			"phone": "02335244200",
			"balad": "https://balad.ir/embed?p=TySD3JCTRfumve",
			"googlemap": "https://goo.gl/maps/xsfF8bKSxyjEv2jp8",
			"location": "36.4222555,54.9733329"
		},
		{
			"name": "مرکز اهدای خون گرمسار",
			"address": "گرمسار-بلوار آزادگان،روبروی پمپ گاز",
			"worktime": "7:30 الی 13:30",
			"phone": "02334241050",
			"balad": "https://balad.ir/embed?p=2mHBIyjKgn6eNl",
			"googlemap": "https://goo.gl/maps/j5S4VkYFq1Jrsobq7",
			"location": "35.2182064,52.3526863"
		},
		{
			"name": "مرکز امام مهدی (عج)",
			"address": "زاهدان- خ آزادی تقاطع مصطفی خمینی مرکز خونگیری زاهدان",
			"worktime": "07:00 الی 20:00",
			"phone": "05433220000|05433229999",
			"balad": "https://balad.ir/embed?p=6V8y4jV3hMfCfS",
			"googlemap": "https://goo.gl/maps/byuM3sQ1tKzvSSvw9",
			"location": "29.4954538,60.8683402"
		},
		{
			"name": "مرکز اهدای خون زابل",
			"address": "زابل- خ امام خمینی جنب مخابرات",
			"worktime": "7:00  الی 19:30",
			"phone": "05432241335",
			"balad": "https://balad.ir/embed?p=7e49hZpsaUp7kV",
			"googlemap": "https://goo.gl/maps/G9KuNNQmpxnVCwpd9",
			"location": "31.0273704,61.4935403"
		},
		{
			"name": "مرکز اهدای خون چابهار",
			"address": "چابهار- خ شهید باهنر خ امداد جنب بیمارستان امام علی (ع)",
			"worktime": "7 الی 13",
			"phone": "05435330780",
			"balad": "https://balad.ir/embed?p=5UqJ8N5rK8zYGO",
			"googlemap": "https://goo.gl/maps/RyrYHD3RjhqNzcWu9",
			"location": "25.2849482,60.6509118"
		},
		{
			"name": "مرکز اهدای خون ایرانشهر",
			"address": "ایرانشهر- پارک شهدا خ بهداشت روبروی معاونت بهداشتی دانشگاه علوم پزشکی ایرانشهر",
			"worktime": "7 الی 13",
			"phone": "05437222999",
			"balad": "https://balad.ir/embed?p=3txWMQhnXH88DB",
			"googlemap": "https://goo.gl/maps/drx7BG5mFPd56YiMA",
			"location": "27.203622,60.676235"
		},
		{
			"name": "مرکز اهدای خون سراوان",
			"address": "سراوان- خ عدالت عدالت شمالی روبروی عدالت 12",
			"worktime": "روزهای سه شنبه ، چهارشنبه ، پنج شنبه  14:00 الی 19:00",
			"phone": "05437628008",
			"balad": "https://balad.ir/embed?p=F94fcCUHNqVNSN",
			"googlemap": "https://goo.gl/maps/LnrtNowMJWoCJ6jo8",
			"location": "27.399914,62.3350193"
		},
		{
			"name": "مرکز اهدای خون خاش",
			"address": "خاش- خیابان امام خمینی میدان شهدا جنب دانشکده سلامت خاش",
			"worktime": "سه شنبه ها 8:00 الی 11:30",
			"phone": "05433727000",
			"balad": "https://balad.ir/embed?p=4n2vFJSw9psErK",
			"googlemap": "https://goo.gl/maps/f1DWiyMBU3bfin2B8",
			"location": "28.2221146,61.2053356"
		},
		{
			"name": "اداره کل انتقال خون استان خراسان جنوبی",
			"address": "خیابان پاسداران میدان جانبازان",
			"worktime": "همه روزه 7:30تا13:30 | یکشنبه وچهارشنبه 7:30تا19:15 | پنجشنبه 7:30 تا 12:30",
			"phone": "05632433119",
			"balad": "https://balad.ir/embed?p=mMqj2mAdU8Hkz8",
			"googlemap": "https://goo.gl/maps/niC26F4rvk8Vw4s87",
			"location": "32.8521447,59.2198809"
		},
		{
			"name": "مرکز اهدای خون (کانتینر)",
			"address": "میدان ابوذر",
			"worktime": "شنبه تاپنج شنبه 8تا13:00",
			"phone": "05632224444",
			"balad": "https://balad.ir/embed?p=1LO2vu4j0We3c4",
			"googlemap": "https://goo.gl/maps/YGRqfCMfjUNj3S2e7",
			"location": "32.8732038,59.2147436"
		},
		{
			"name": "مرکز اهدای خون طبس",
			"address": "طبس گلشن- میدان امام رضا",
			"worktime": "همه روزه 7:30تا13:30 | سه شنبه ها (صبح :7:30 تا 13:30 عصر:16 تا 19 ) | پنجشنبه 7:30 تا 12:30",
			"phone": "05632833500",
			"balad": "https://balad.ir/embed?p=7p9ti5IhMKMcY2",
			"googlemap": "https://goo.gl/maps/rQ7jfPBoUWec2kKq9",
			"location": "33.5958058,56.9161795"
		},
		{
			"name": "مرکز اهدای خون فردوس",
			"address": "بلوارشفاخیابان مطهری دکترمعتمدی 1",
			"worktime": "",
			"phone": "05632732032",
			"balad": "https://balad.ir/embed?p=aUL57TMyE9Hw42",
			"googlemap": "https://goo.gl/maps/escY2REdgUZ1wAUw8",
			"location": "34.0159044,58.1637107"
		},
		{
			"name": "مرکز اهدای خون قاین",
			"address": "حاشیه بلوار بامشاد قبل ازجایگاه سی ان جی",
			"worktime": "",
			"phone": "05632526318",
			"balad": "https://balad.ir/embed?p=8TFkdSZVasU7Tz",
			"googlemap": "https://goo.gl/maps/ooA8kGFdFxj3kEWK6",
			"location": "33.7330141,59.1912234"
		},
		{
			"name": "اداره کل انتقال خون استان آذربایجان غربی",
			"address": "آذربایجان غربی- خیابان مدرس",
			"worktime": "شنبه تا چهارشنبه 30/7 الی 20 | پنجشنبه 30/7 الی 19 | جمعه 8 الی 13",
			"phone": "04433442111|04433442112",
			"balad": "https://balad.ir/embed?p=PpQZYNmeaTA55A",
			"googlemap": "https://goo.gl/maps/f9LZn5BzHymbjcRWA",
			"location": "37.5508315,45.0544543"
		},
		{
			"name": "مرکز اهدای خون خوی",
			"address": "خوی- میدان امام حسین (ع)",
			"worktime": "شنبه تا چهارشنبه 30/7 الی 30/14 | پنجشنبه 30/7 الی 30/13",
			"phone": "04436338888",
			"balad": "https://balad.ir/embed?p=R5BZJEbez3ven2",
			"googlemap": "https://goo.gl/maps/wrJDahJh4yb5M8i76",
			"location": "38.5488137,44.9289119"
		},
		{
			"name": "مرکز اهدای خون مهاباد",
			"address": "مهاباد- فلکه مادر",
			"worktime": "شنبه تا چهارشنبه 30/7 الی 30/14 | پنجشنبه 30/7 الی 30/13",
			"phone": "04442442881",
			"balad": "https://balad.ir/embed?p=R5wCWCYHZSKbuF",
			"googlemap": "https://goo.gl/maps/ic9Lrm67ZmAcAdtZ6",
			"location": "36.7679699,45.7154132"
		},
		{
			"name": "مرکز اهدای خون میاندوآب",
			"address": "میاندوآب- خیابان دانش جنب مرکز بهداشت",
			"worktime": "شنبه تا چهارشنبه 30/7 الی 30/14 | پنجشنبه 30/7 الی 30/13",
			"phone": "04445231332",
			"balad": "https://balad.ir/embed?p=5CUyNc1KRBUj2s",
			"googlemap": "https://goo.gl/maps/Lj9pnDaRKYTackci9",
			"location": "36.9731805,46.0972764"
		},
		{
			"name": "مرکز اهدای خون نقده",
			"address": "نقده- خیابان امام خمینی، بیمارستان فاطمه زهرا",
			"worktime": "شنبه تا چهارشنبه 30/7 الی 30/14 | پنجشنبه 30/7 الی 30/13",
			"phone": "04435634287",
			"balad": "https://balad.ir/embed?p=5X9eFwu4EFXXIr",
			"googlemap": "https://goo.gl/maps/dAHC4UWAF7BjMbdk8",
			"location": "36.2011648,46.4798226"
		},
		{
			"name": "اداره کل انتقال خون استان یزد",
			"address": "یزد-صفائیه- میدان ابوذر",
			"worktime": "شنبه تا 5 شنبه: 7:30 صبح الی 19",
			"phone": "03538247427",
			"balad": "https://balad.ir/embed?p=N5ZTp63aL2yBN3",
			"googlemap": "https://goo.gl/maps/dipAPbe8iJot35FPA",
			"location": "31.8720474,54.3504295"
		},
		{
			"name": "مرکز اهدای خون آزادشهر",
			"address": "آزادشهر فلکه پنجم جنب پمپ گاز",
			"worktime": "شنبه تا 5 شنبه: 8صبح الی 12:30",
			"phone": "03537217311",
			"balad": "https://balad.ir/embed?p=3WRSeXolEN0Grf",
			"googlemap": "https://goo.gl/maps/t5ewi96tskYqXQsC9",
			"location": "31.8614428,54.2904512"
		},
		{
			"name": "مرکز اهدای خون شهید حسینی پور اردکان",
			"address": "اردکان-مجتمع ادارات-خیابان دولت",
			"worktime": "شنبه تا 5 شنبه: 7:30 الی 13:30",
			"phone": "03532225040",
			"balad": "https://balad.ir/embed?p=7geZEotNxTR3Ee",
			"googlemap": "https://goo.gl/maps/RDfuCQCVJ8jq4yq27",
			"location": "32.2910258,54.0186649"
		},
		{
			"name": "مرکز اهدای خون میبد",
			"address": "میبد-خیابان هفت تیر-روبروی رضویه",
			"worktime": "شنبه تا 5 شنبه: 7:30 الی 13:30",
			"phone": "03532324050",
			"balad": "https://balad.ir/embed?p=2mK5yFTCN5u8pu",
			"googlemap": "https://goo.gl/maps/QNv2539dMtdnrKoF7",
			"location": "32.2316327,54.0188776"
		},
		{
			"name": "مرکز جامع اهدای خون سعدی",
			"address": "زنجان- چهارراه سعدی",
			"worktime": "شنبه الی پنج شنبه 8 صبح لغایت 19:30 عصر جمعه 8 صبح لغایت 14",
			"phone": "02433549303|02433549301",
			"balad": "https://balad.ir/embed?p=5WiTvd6dvWBcwh",
			"googlemap": "https://goo.gl/maps/GP1UZAWXfbG5LHWV9",
			"location": "36.1529499,49.2332742"
		},
		{
			"name": "مرکز اهدای خون ابهر",
			"address": "ابهر- چهار راه معلم، درب قدیم بیمارستان امدادی ابهر جنب داروخانه دکتر شاهانی",
			"worktime": "شنبه الی پنج شنبه 8 صبح لغایت 14 ",
			"phone": "02435231930",
			"balad": "https://balad.ir/embed?p=7kK5GKEmL9Aui6",
			"googlemap": "https://goo.gl/maps/WngGanCNo38wVCa59",
			"location": "36.6756016,48.4822148"
		},
		{
			"name": "مرکز جامع اهدای خون وصال",
			"address": "تهران- خ انقلاب- خ وصال شیرازی- بالاتر از تقاطع طالقانی- شماره 99",
			"worktime": "همه روزه از ساعت 8 لغایت 20:30",
			"phone": "88959093|88959094|88959095",
			"balad": "https://balad.ir/embed?p=6VHSowpqt0RdyI",
			"googlemap": "https://goo.gl/maps/xDsijHjaD7KH6KtZA",
			"location": "35.7057154,51.3964714"
		},
		{
			"name": "مرکز جامع اهدای خون منطقه 5 (ستاری)",
			"address": "تهران- اتوبان ستاری- بالاتر از فروشگاه کوروش- خروجی باغ فیض- خلیل آبادی- جنب مسجد جامع بعثت",
			"worktime": "شنبه الی 5 شنبه | از ساعت 8 الی 19",
			"phone": "46014993",
			"balad": "https://balad.ir/embed?p=2DXL2BtYXXelWX",
			"googlemap": "https://goo.gl/maps/rvrA9wYqCEyUmiAJ9",
			"location": "35.7470845,51.3130091"
		},
		{
			"name": "مرکز جامع اهدای خون منطقه 4 (تهرانپارس)",
			"address": "تهران- فلکه چهارم تهرانپارس- ضلع غربی پارک پلیس- انتهای خیابان سیزدهم شرقی",
			"worktime": "شنبه الی پنج شنبه ساعت 8 الی 19",
			"phone": "77370309|77370355|77370379|77370381",
			"balad": "https://balad.ir/embed?p=4VFxJCbMEdJRvU",
			"googlemap": "https://goo.gl/maps/jeX2yERtoXD3qL6y6",
			"location": "35.7582795,51.5363704"
		},
		{
			"name": "مرکز جامع اهدای خون منطقه 20 (شهر ری)",
			"address": "شهید آوینی- خیابان شهید کریمی شیرازی- روبروی فروشگاه شهروند",
			"worktime": "شنبه الی 5 شنبه ساعت 8 الی 19",
			"phone": "55925609|55925395|55925974|55925437",
			"balad": "https://balad.ir/embed?p=5GEnixEeLN1iRZ",
			"googlemap": "https://goo.gl/maps/enkfD7UNGBPsxy2o6",
			"location": "35.5853789,51.4455041"
		},
		{
			"name": "مرکز جامع اهدای خون منطقه 1 (پل صدر)",
			"address": "شریعتی- زرگنده (خاقانی)- خ عطاری مقدم شمالی – خ لسانی-انتهای خ شکرآیی",
			"worktime": "شنبه الی پنج شنبه  از ساعت 8 لغایت 15",
			"phone": "26643634|22604270|22645015",
			"balad": "https://balad.ir/embed?p=2J1LhYU4doymxC",
			"googlemap": "https://goo.gl/maps/SsNAmJowdPSCzrLA7",
			"location": "35.7806142,51.4292381"
		},
		{
			"name": "مرکز اهدای خون پیروزی",
			"address": "خ پیروزی –بین خ اول ودوم نیروی هوایی پ271",
			"worktime": "شنبه الی پنج شنبه  از ساعت 8 لغایت 19",
			"phone": "77465137",
			"balad": "https://balad.ir/embed?p=PIICEtjBIFJyzH",
			"googlemap": "https://goo.gl/maps/gJSuyw1Qkf2s6qSVA",
			"location": "35.6923019,51.4787589"
		},
		{
			"name": "مرکز اهدای خون نارمک",
			"address": "بزرگراه رسالت –بین میدان رسالت وچهارراه سرسبز نبش خ 49",
			"worktime": "شنبه الی پنج شنبه  از ساعت 8 لغایت 15",
			"phone": "77191144|77805570",
			"balad": "https://balad.ir/embed?p=PXb7jNCJ2t58LO",
			"googlemap": "https://goo.gl/maps/VREGVRbS6NzxUtUUA",
			"location": "35.7359424,51.4896668"
		},
		{
			"name": "مرکز اهدای خون مترو امام خمینی",
			"address": "م امام خمینی –ابتدای باب همایون",
			"worktime": "شنبه الی پنج شنبه  از ساعت 8 لغایت 15",
			"phone": "33991010",
			"balad": "https://balad.ir/embed?p=5MBLikK6cnoG5f",
			"googlemap": "https://goo.gl/maps/LWTHaSJsjiLVgtmBA",
			"location": "35.683907,51.4181735"
		},
		{
			"name": "مرکز اهدای خون شهریار",
			"address": "شهرستان شهریار-خ انقلاب – روبه روی امام زاده اسماعیل",
			"worktime": "شنبه الی پنج شنبه  از ساعت 8 لغایت 15",
			"phone": "65263000",
			"balad": "https://balad.ir/embed?p=PQ3CtraoL0T5vm",
			"googlemap": "https://goo.gl/maps/gv73ggbJViGfRZem7",
			"location": "35.656884,51.0514485"
		},
		{
			"name": "مرکز اهدای خون رباط کریم",
			"address": "بلوار مصلی –ضلع جنوب غربی میدان معلم روبه روی مرکز پیش دانشگاهی دارالعلم",
			"worktime": "روزهای فرد از ساعت 8 لغایت 15",
			"phone": "56214055",
			"balad": "https://balad.ir/embed?p=5LcKkMFmBfs3F6",
			"googlemap": "https://goo.gl/maps/81dRHmQYmNyZLuDA7",
			"location": "35.4792444,51.0805004"
		},
		{
			"name": "مرکز اهدای خون شهر قدس",
			"address": "شهرستان قدس-خ 45 متری انقلاب-بوستان آزادگان-نبش خ صنعت 2",
			"worktime": "روزهای زوج  از ساعت 8 لغایت 15",
			"phone": "44802440",
			"balad": "https://balad.ir/embed?p=2YYL0qXWvB7lwt",
			"googlemap": "https://goo.gl/maps/P2JvJDjU7zLsj4Fx5",
			"location": "35.7186704,51.1221612"
		},
		{
			"name": "مرکز اهدای خون ورامین",
			"address": "کمربندی شهید بهشتی-خ مجتمع ادارات-خ امیرکبیر-کوچه خیام",
			"worktime": "شنبه الی پنج شنبه  از ساعت 8 لغایت 15",
			"phone": "36245377|36245344",
			"balad": "https://balad.ir/embed?p=3YouAvRObZ83Zg",
			"googlemap": "https://goo.gl/maps/j1nK1er8ezVSfXq26",
			"location": "35.3252876,51.6375636"
		}
	]
}