{
	"name": "اصفهان",
	"slug": "esfahan",
	"centers": [
		{
			"name": "مرکز اهدای خون خواجو",
			"address": "اصفهان- میدان خواجو",
			"worktime": "شنبه تا چهارشنبه 7:30 تا 18:30 | پنج شنبه ها 7:30 تا 17:30 ",
			"phone": "03132228885",
			"balad": "https://balad.ir/embed?p=PS4rGfHouMpchR",
			"googlemap": "https://goo.gl/maps/vkrPgUN6roC1ErKR8",
			"location": "32.6379669,51.6801542"
		},
		{
			"name": "مرکز اهدای خون عاشق اصفهانی",
			"address": "اصفهان- چهارراه عاشق اصفهانی- ابتدای عاشق اصفهانی",
			"worktime": "شنبه تا پنج شنبه 8 تا 12:30",
			"phone": "03135521801",
			"balad": "https://balad.ir/embed?p=PyuqiH4VWBpqI1",
			"googlemap": "https://goo.gl/maps/yUAYsrn7aBvRkXGCA",
			"location": "32.7093469,51.7190301"
		},
		{
			"name": "مرکز اهدای خون شاهین شهر",
			"address": "شاهین شهر- بلوار دکتر حسابی اول فرعی 9",
			"worktime": "شنبه – دوشنبه- چهار شنبه 8 تا 12",
			"phone": "03132228885",
			"balad": "https://balad.ir/embed?p=1ECD2BCaIcYpUz",
			"googlemap": "https://goo.gl/maps/EjQTXuZsaVehzeGP9",
			"location": "32.8688764,51.5499222"
		},
		{
			"name": "مرکز اهدای خون خمینی شهر",
			"address": "خمینی شهر- خیابان امام شمالی",
			"worktime": "شنبه تا پنج شنبه 8تا 12:30",
			"phone": "03133613746",
			"balad": "https://balad.ir/embed?p=iG2l7y8Yhdz2UB",
			"googlemap": "https://goo.gl/maps/8NaCr6s2jMyT97DMA",
			"location": "32.6815498,51.5333127"
		},
		{
			"name": "مرکز اهدای خون نجف آباد",
			"address": "خیابان 17 شهریور غربی",
			"worktime": "شنبه تا پنج شنبه 8 تا 12:30",
			"phone": "03142621114",
			"balad": "https://balad.ir/embed?p=PxtoMfyc3RZy7T",
			"googlemap": "https://goo.gl/maps/QxFFNuYodUJEfTbcA",
			"location": "32.6345972,51.3593352"
		},
		{
			"name": "مرکز اهدای خون خوانسار",
			"address": "خوانسار- بلوار معلم",
			"worktime": "شنبه تا پنج شنبه 8 تا 12:30",
			"phone": "03157770443",
			"balad": "https://balad.ir/embed?p=R42AZMDcYciG1c",
			"googlemap": "https://goo.gl/maps/mt3LBQhtygLHsxv17",
			"location": "33.2270649,50.3157335"
		},
		{
			"name": "مرکز اهدای خون گلپایگان",
			"address": "گلپایگان- خیابان شهید رجایی",
			"worktime": "شنبه تا پنج شنبه 8 تا 12",
			"phone": "03157453833",
			"balad": "https://balad.ir/embed?p=f7EaEEYvdqwSdK",
			"googlemap": "https://goo.gl/maps/NYP8LJwHhZfGwkNu6",
			"location": "33.4541856,50.2832487"
		},
		{
			"name": "مرکز اهدای خون کاشان",
			"address": "کاشان- میدان قاضی اسداله",
			"worktime": "شنبه تا پنج شنبه 8 تا 13",
			"phone": "03155318855",
			"balad": "https://balad.ir/embed?p=7eEiE4myUL15n1",
			"googlemap": "https://goo.gl/maps/P6JrgEAsv7S1tKJL6",
			"location": "33.9754722,51.432121"
		},
		{
			"name": "مرکز اهدای خون نایین",
			"address": "نایین- خیابان امام خمینی",
			"worktime": "شنبه – دوشنبه- چهار شنبه 8 تا 12",
			"phone": "03146253086",
			"balad": "https://balad.ir/embed?p=V72L3iaT9iQckz",
			"googlemap": "https://goo.gl/maps/WbwnCtok3t1g8DhBA",
			"location": "32.863326,53.0884472"
		},
		{
			"name": "مرکز اهدای خون شهرضا",
			"address": "شهرضا- خیابان شهید بهشتی",
			"worktime": "شنبه تا پنج شنبه 8  تا 13",
			"phone": "03153227833",
			"balad": "https://balad.ir/embed?p=34XaTyhYh9pidQ",
			"googlemap": "https://goo.gl/maps/devMJ4LHbQ3dUR2v5",
			"location": "32.0158906,51.8706805"
		},
		{
			"name": "مرکز اهدای خون زرین شهر",
			"address": "زرین شهر- بلوار معلم جنب بسیج",
			"worktime": "روزهای سه شنبه 8 تا 12",
			"phone": "03152239878",
			"balad": "https://balad.ir/embed?p=1RaA65BdeZULHs",
			"googlemap": "https://goo.gl/maps/F4gVpDa3wcyrKKm4A",
			"location": "32.3892184,51.3604526"
		}
	]
}