{
	"name": "گیلان",
	"slug": "gilan",
	"centers": [
		{
			"name": "اداره کل انتقال خون استان گیلان",
			"address": "رشت- میدان فرهنگ- خیابان آزادگان- جنب بانک کشاورزی – کوچه اهدای خون",
			"worktime": "شنبه الی چهارشنبه صبح و عصر : 7:45 الی 19 | پنجشنبه :  7:45 صبح الی18  | جمعه : 8:30 الی 13",
			"phone": "01333326006|01333332670",
			"balad": "https://balad.ir/embed?p=1CO46fHWC10nwf",
			"googlemap": "https://goo.gl/maps/zYNdVsCfxACT2HAt8",
			"location": "37.2684029,49.5964931"
		},
		{
			"name": "مرکز اهدای خون لاهیجان",
			"address": "لاهیجان- خیابان امام خمینی – جنب بیمارستان ۲۲ آبان",
			"worktime": "شنبه الی چهارشنبه صبح و عصر : 7:45 الی 19 | پنجشنبه : 7:45 صبح الی18",
			"phone": "01342231022|01342227090",
			"balad": "https://balad.ir/embed?p=6AwyYXjGF4y2Uq",
			"googlemap": "https://goo.gl/maps/JpbJJZQ8GV5yokoJ8",
			"location": "37.2059217,50.0034892"
		},
		{
			"name": "مرکز اهدای خون رودسر",
			"address": "رودسر- خیابان انقلاب – جنب بیمارستان شهدا",
			"worktime": "شنبه الی پنجشنبه : 7:45 صبح الی 13:15",
			"phone": "01342626000",
			"balad": "https://balad.ir/embed?p=3yStNw0TpjfcuO",
			"googlemap": "https://goo.gl/maps/5XJPGeDLA5D572YPA",
			"location": "37.1341785,50.2882315"
		},
		{
			"name": "مرکز اهدای خون انزلی",
			"address": "انزلی- خیابان سی متری – جنب دانشگاه بین الملل علوم پزشکی",
			"worktime": "شنبه الی پنجشنبه :  7:45 صبح الی 13:15",
			"phone": "01344542801|01344541127",
			"balad": "https://balad.ir/embed?p=G5pUD17hBubhZf",
			"googlemap": "https://goo.gl/maps/kp9nBktwDUdti3qR6",
			"location": "37.3062315,49.593202"
		},
		{
			"name": "مرکز اهدای خون فومن",
			"address": "فومن- خیابان شهید بهشتی – جنب اداره ارشاد",
			"worktime": "شنبه الی پنجشنبه :  7:45 صبح الی 13:15",
			"phone": "01334723871",
			"balad": "https://balad.ir/embed?p=6MidxZ2N9NQWne",
			"googlemap": "https://goo.gl/maps/HtTV83x2ExR6pBK2A",
			"location": "37.2225109,49.314704"
		},
		{
			"name": "مرکز اهدای خون تالش",
			"address": "تالش- خیابان شهید بهشتی – جنب اداره ارشاد",
			"worktime": "شنبه الی پنجشنبه :  7:45 صبح الی 13:15",
			"phone": "01344226464|01344226465|01344226466",
			"balad": "https://balad.ir/embed?p=qVXz2gVv6SSann",
			"googlemap": "https://goo.gl/maps/8NV6tGqnUXEUv8b59",
			"location": "37.7986892,48.9075598"
		},
		{
			"name": "مرکز اهدای خون آستارا",
			"address": "آستارا- خیابان فارابی – محوطه اورژانس قدیم",
			"worktime": "شنبه الی پنجشنبه :  7:45 صبح الی 13:15",
			"phone": "01343829780",
			"balad": "https://balad.ir/embed?p=VRv2wNXQH29IlB",
			"googlemap": "https://goo.gl/maps/UFDHKSUkaW2KDM2x5",
			"location": "38.4357614,48.8736279"
		},
		{
			"name": "مرکز اهدای خون لنگرود",
			"address": "خیابان شریعتی – جنب مرکز بهداشت",
			"worktime": "شنبه الی پنجشنبه :  7:45 صبح الی 13:15",
			"phone": "01342520004",
			"balad": "",
			"googlemap": "",
			"location": ""
		}
	]
}