{
	"name": "گلستان",
	"slug": "golestan",
	"centers": [
		{
			"name": "اداره کل انتقال خون استان گلستان",
			"address": "گرگان- خیابان 5 آذر- اداره کل منطقه ای آموزشی انتقال خون گلستان",
			"worktime": "8صبح الی 19:30 همه روز بغیر از روز های تعطیل | پنحشنبه ها از ساعت8 صبح الی 18:30",
			"phone": "332229224",
			"balad": "https://balad.ir/embed?p=3eJ9DlEOi3Opkj",
			"googlemap": "https://goo.gl/maps/odkFesfi6wew4Tyw6",
			"location": "36.8360294,54.4302392"
		},
		{
			"name": "مرکز اهدای خون گنبدکاووس",
			"address": "گنبدکاووس- خیابان 17 شهریور شرقی –جنب بخشداری",
			"worktime": "8صبح الی 19:30همه روز بغیر از روز های تعطیل | پنحشنبه ها از ساعت8 صبح الی 18:30",
			"phone": "33382905",
			"balad": "https://balad.ir/embed?p=4usrXukcfUNsA4",
			"googlemap": "https://goo.gl/maps/f5LkPi81fToAPnaC9",
			"location": "37.2374369,55.1712802"
		},
		{
			"name": "مرکز اهدای خون علی آباد کتول",
			"address": "علی آباد کتول خیابان امام رضا –کوچه فردوسی 29 ( بنیاد شهیدقدیم)",
			"worktime": "صبح 9الی 13:30 ظهرهمه روز بغیر از روز های تعطیل | پنحشنبه ها از ساعت9 صبح الی 12:30",
			"phone": "3423117",
			"balad": "https://balad.ir/embed?p=GSD5SuX32uA5dK",
			"googlemap": "https://goo.gl/maps/Egb5NsNA9qjeEPXX7",
			"location": "36.9047949,54.8550398"
		},
		{
			"name": "مرکز اهدای خون بندرگز",
			"address": "بندرگز- خیابان اسدی عرب بعدازفرمانداری",
			"worktime": "8:30صبح الی 13:30 ظهر(روز های زوج(شنبه، دوشنبه ، چهارشنبه",
			"phone": "34366430",
			"balad": "",
			"googlemap": "",
			"location": ""
		},
		{
			"name": "مرکز اهدای خون مسجد جامع کردکوی",
			"address": "کردکوی - میدان انقلاب ابتدایی خیابان ولی عصر(عج)جنب مسجد جامع",
			"worktime": "روز های (یکشنبه، سه شنبه ،) از ساعت 9 الی 13 | پنجشنبه از ساعت 9 الی 12:30",
			"phone": "3434644",
			"balad": "https://balad.ir/embed?p=2dGOrOoBgwmEix",
			"googlemap": "https://goo.gl/maps/TzCis3nMvJHJkGj9A",
			"location": "36.7924827,54.1110466"
		},
		{
			"name": "تیم سیار خونگیری آزادشهر",
			"address": "آزادشهر- خیابان رجائی (خیابان شاهرود) - مجتمع مروارید طبقه سوم واحد 213",
			"worktime": "10صبح الی 13 روزهای شنبه و چهارشنبه هرهفته باز می باشد.",
			"phone": "",
			"balad": "https://balad.ir/embed?p=P5mFERUNb0NXhO",
			"googlemap": "https://goo.gl/maps/zDHffeG63DL8epj69",
			"location": "37.087083,55.1770213"
		},
		{
			"name": "تیم سیار خونگیری شهدای منا",
			"address": "آق قلا- روبروی پل جدید جنب پارک کودک",
			"worktime": "8:30صبح الی 13:30 ظهر روز های فرد (یکشنبه، سه شنبه ، پنجشنبه)",
			"phone": "",
			"balad": "",
			"googlemap": "",
			"location": ""
		}
	]
}