{
	"name": "خراسان رضوی",
	"slug": "khorasan-razavi",
	"centers": [
		{
			"name": "مرکز اهدای خون امام رضا (ع)",
			"address": "مشهد- میدان شریعتی ابتدای خیابان دانشگاه",
			"worktime": "ساعت 7:45 الی 13:00 | 14:00 الی 18:45",
			"phone": "05138516300",
			"balad": "https://balad.ir/embed?p=1NOtypss32wYCN",
			"googlemap": "https://goo.gl/maps/QH2Bjk8Gze5hNaxq5",
			"location": "32.7525303,51.6793577"
		},
		{
			"name": "مرکز اهدای خون شهید سلیمانی",
			"address": "مشهد- بلوار استقلال بین استقلال 2 و4",
			"worktime": "7:45 الی 13:00 ",
			"phone": "05136053117",
			"balad": "https://balad.ir/embed?p=5XKkzMQf8eT6GJ",
			"googlemap": "https://goo.gl/maps/xz22ACoLFZagPwSw8",
			"location": "36.3268287,59.5367725"
		},
		{
			"name": "مرکز اهدای خون شهید کریمی",
			"address": "مشهد- قاسم آباد نبش شریعتی 28",
			"worktime": "7:45 الی 13:00",
			"phone": "05136631752",
			"balad": "https://balad.ir/embed?p=4exXGvAxhuJAlY",
			"googlemap": "https://goo.gl/maps/SsVaXKuH43xDQxcy7",
			"location": "36.3525352,59.5165463"
		},
		{
			"name": "مرکز اهدای خون امید",
			"address": "مشهد- خیابان شیرازی نبش شیرازی3 مجتمع امید طبقه منهای یک",
			"worktime": "7:45 الی 13:00",
			"phone": "05132224619",
			"balad": "https://balad.ir/embed?p=P503XsoRA0mm6r",
			"googlemap": "https://goo.gl/maps/s53Gdy4Vj1Vax5Qe9",
			"location": "36.2919974,59.6105323"
		},
		{
			"name": "مرکز اهدای خون ثامن",
			"address": "مشهد- بازارچه شهید آستانه پرست پارکینگ 4 حرم مطهر (موقتا تعطیل)",
			"worktime": "7:45 الی 13:00",
			"phone": "05132256554",
			"balad": "https://balad.ir/embed?p=6yOJGBNZGyin76",
			"googlemap": "https://goo.gl/maps/DvpRpCSjF7HhkD3k7",
			"location": "36.2881828,59.6124432"
		},
		{
			"name": "مرکز اهدای خون مهر",
			"address": "مشهد- بلوار ابوطالب نبش ابوطالب 33",
			"worktime": "7:45 الی 13:00",
			"phone": "05137293144",
			"balad": "https://balad.ir/embed?p=1oLop6cQuGBytm",
			"googlemap": "https://goo.gl/maps/ZZ9jc6aRdxEsTjvf6",
			"location": "36.3251556,59.5926407"
		},
		{
			"name": "مرکز اهدای خون قوچان",
			"address": "قوچان- خیابان ولی عصر- بلوار مصلی- بعد چهارراه - روبروی مصلی",
			"worktime": "08:00 الی 12:30",
			"phone": "05147224114|05147246600",
			"balad": "https://balad.ir/embed?p=v5huq4VV16u29G",
			"googlemap": "https://goo.gl/maps/8wLXLaPktMq8dZSd6",
			"location": "37.09725,58.5049526"
		},
		{
			"name": "مرکز اهدای خون تربت حیدریه",
			"address": "تربت حیدریه- خیابان شهید رجائی-نبش رجائی11",
			"worktime": "08:00 الی 12:30",
			"phone": "05152274350|05152274351",
			"balad": "https://balad.ir/embed?p=P2EsEFvgTAAdEI",
			"googlemap": "https://goo.gl/maps/jAMQGRGGb97yV1oB6",
			"location": "35.2690795,59.2201509"
		},
		{
			"name": "مرکز اهدای خون سبزوار",
			"address": "سبزوار- میدان شریعتی-ابتدای خیابان پاسداران-بالاتر از اداره اوقاف",
			"worktime": "08:00 الی 12:30",
			"phone": "05144641655|05144649020",
			"balad": "https://balad.ir/embed?p=5tNHDix6Arrvpw",
			"googlemap": "",
			"location": ""
		},
		{
			"name": "مرکز اهدای خون نیشابور",
			"address": "نیشابور- خیابان امام خمینی-امام خمینی17",
			"worktime": "08:00 الی 12:30",
			"phone": "05143334122|05143336922",
			"balad": "https://balad.ir/embed?p=5gqhYQUfWF7pOV",
			"googlemap": "https://goo.gl/maps/jkZUshhkDADLSoFK8",
			"location": "36.2081937,58.7901142"
		},
		{
			"name": "مرکز اهدای خون گناباد",
			"address": "گناباد- خیابان امام خمینی- امام خمینی 2",
			"worktime": "08:00 الی 12:30",
			"phone": "05157229440|05157228573|05157229944",
			"balad": "https://balad.ir/embed?p=6bHmw2cgw4hFqM",
			"googlemap": "https://goo.gl/maps/FzJiKTh4A9J7Youz5",
			"location": "34.3506049,58.6816039"
		},
		{
			"name": "مرکز اهدای خون تربت جام",
			"address": "تربت جام- بلوار خلیج فارس- شبکه کارگر- جنب مرکزمعلولین",
			"worktime": "فقط روزهای یکشنبه و چهارشنبه 08:00 الی 11:30",
			"phone": "05152534123",
			"balad": "https://balad.ir/embed?p=R7JLq71hKVq5Jq",
			"googlemap": "https://goo.gl/maps/H9CL1SEEyco9zHKUA",
			"location": "35.2582227,60.6241442"
		},
		{
			"name": "مرکز اهدای خون کاشمر",
			"address": "کاشمر- خیابان سلطانیه-بین سلطانیه3 و5 روبروی حسینیه حیدری",
			"worktime": "08:00 الی 12:30",
			"phone": "05155240115",
			"balad": "https://balad.ir/embed?p=Iu4Tf4VBDHRe99",
			"googlemap": "https://goo.gl/maps/bNtBAQ3YKLFSKMaY6",
			"location": "35.2352919,58.4619087"
		}
	]
}