{
	"name": "مازندران",
	"slug": "mazandaran",
	"centers": [
		{
			"name": "مرکز اهدای خون ساری",
			"address": "بلوارارتش، جنب بیمارستان قلب فاطمه زهرا(س) ، اداره کل انتقال خون استان",
			"worktime": "شنبه تا چهارشنبه از ساعت 7:30 تا 18:30 | پنج شنبه ها از ساعت 7:30 تا 17:30",
			"phone": "01133323010",
			"balad": "https://balad.ir/embed?p=2igMiZjz4ztdKg",
			"googlemap": "https://goo.gl/maps/veDrXQW86hf6t9Vb7",
			"location": "36.5557065,53.0580313"
		},
		{
			"name": "مرکز اهدای خون آمل",
			"address": "بلوارآیت الله طالقانی، روبروی آتش نشانی",
			"worktime": "شنبه تا چهارشنبه 7:30 تا 17 | پنج شنبه ها 7:30 تا 13",
			"phone": "01144223013",
			"balad": "https://balad.ir/embed?p=5gKIFg5WBZgFGy",
			"googlemap": "https://goo.gl/maps/krJGBojdMhmFTvjV8",
			"location": "36.4584751,52.3498374"
		},
		{
			"name": "مرکز اهدای خون بابل",
			"address": "کمربندی شرقی، ابتدای خیابان شهید محبوبی",
			"worktime": "شنبه تا چهارشنبه 7:30 تا 18 | پنج شنبه 7:30 تا 13",
			"phone": "01132371055",
			"balad": "https://balad.ir/embed?p=P9nkCJHUguduwh",
			"googlemap": "https://goo.gl/maps/zychpMM9CyZ3EMiu5",
			"location": "36.5502157,52.6891744"
		},
		{
			"name": "مرکز اهدای خون تنکابن",
			"address": "خیابان جمهوری،خیابان برادران شهید ابراهیمی",
			"worktime": "شنبه تا چهارشنبه 7:30 تا 13:30 | پنج شنبه ها 7:30 تا 12:30",
			"phone": "01154237020",
			"balad": "https://balad.ir/embed?p=2qAyCqt1Rkbvyo",
			"googlemap": "https://goo.gl/maps/nRYaFtvkEBj2Zwx86",
			"location": "36.8114789,50.8835425"
		},
		{
			"name": "مرکز اهدای خون چالوس",
			"address": "خیابان 17 شهریور، روبروی اداره پست",
			"worktime": "شنبه تا چهارشنبه 7:30 تا 13:30 | پنج شنبه ها 7:30 تا 12:30",
			"phone": "01152225318",
			"balad": "https://balad.ir/embed?p=6jthrbI6SogA2L",
			"googlemap": "https://goo.gl/maps/coYetUoGYSWuaZYC6",
			"location": "36.6500431,51.4219822"
		},
		{
			"name": "مرکز اهدای خون رامسر",
			"address": "کمربندی فاز 2، جنب مسجد امام رضا(ع)",
			"worktime": "شنبه تا پنج شنبه 7:30 الی 12:30",
			"phone": "01155226760",
			"balad": "https://balad.ir/embed?p=2Og3yngoDspNto",
			"googlemap": "https://goo.gl/maps/XQMdvf4rBNEpTN688",
			"location": "36.9148837,50.6525761"
		},
		{
			"name": "مرکز اهدای خون نور",
			"address": "بعد از پلیس راه، شهرک شهید بهشتی ، جنب دانشگاه مازیار",
			"worktime": "یکشنبه و سه شنبه هرهفته 7:30 الی 12",
			"phone": "01144524121",
			"balad": "https://balad.ir/embed?p=V6JTEuQv55xEsa",
			"googlemap": "https://goo.gl/maps/t3xJ7rwzmg8vzkWc9",
			"location": "36.1557177,51.6214477"
		},
		{
			"name": "مرکز اهدای خون قائم شهر",
			"address": "بعد از پل تلار، ابتدای جاده نظامی",
			"worktime": "شنبه تا پنج شنبه 8 الی 12",
			"phone": "01142293787",
			"balad": "https://balad.ir/embed?p=3LTh4QFUisRCtY",
			"googlemap": "https://goo.gl/maps/ePyAEDxXMcefBWMU8",
			"location": "36.4796339,52.8119821"
		},
		{
			"name": "مرکز اهدای خون بهشهر",
			"address": "بلوار شهید هاشمی نژاد، قبل از میدان قدس",
			"worktime": "شنبه تا چهارشنبه 7:30 تا 13:30 | پنج شنبه ها از 7:30 تا 12:30",
			"phone": "01134567474",
			"balad": "https://balad.ir/embed?p=Cy6u4EpunyQGBu",
			"googlemap": "https://goo.gl/maps/pZTwFfcT4oWpWzHg7",
			"location": "36.6862695,53.5603974"
		},
		{
			"name": "مرکز اهدای خون گلوگاه",
			"address": "بلوار امام رضا (ع)، بعد از چهار راه راه آهن، کوچه شهید ایرج امیرخانلو",
			"worktime": "چهارشنبه ها از 9 تا 12:30",
			"phone": "01134660240",
			"balad": "",
			"googlemap": "",
			"location": ""
		},
		{
			"name": "مرکز اهدای خون جویبار",
			"address": "میدان کشتی، کوچه خلیلی، پشت اورژانس",
			"worktime": "دوشنبه و پنج شنبه ها از 8:45 تا 12",
			"phone": "01142532360",
			"balad": "",
			"googlemap": "https://goo.gl/maps/c6HFUHDr1r2ZT4hv8",
			"location": "36.6391162,52.9036523"
		}
	]
}