{
	"name": "تهران",
	"slug": "tehran",
	"centers": [
		{
			"name": "مرکز جامع اهدای خون وصال",
			"address": "تهران- خ انقلاب- خ وصال شیرازی- بالاتر از تقاطع طالقانی- شماره 99",
			"worktime": "همه روزه از ساعت 8 لغایت 20:30",
			"phone": "88959093|88959094|88959095",
			"balad": "https://balad.ir/embed?p=6VHSowpqt0RdyI",
			"googlemap": "https://goo.gl/maps/xDsijHjaD7KH6KtZA",
			"location": "35.7057154,51.3964714"
		},
		{
			"name": "مرکز جامع اهدای خون منطقه 5 (ستاری)",
			"address": "تهران- اتوبان ستاری- بالاتر از فروشگاه کوروش- خروجی باغ فیض- خلیل آبادی- جنب مسجد جامع بعثت",
			"worktime": "شنبه الی 5 شنبه | از ساعت 8 الی 19",
			"phone": "46014993",
			"balad": "https://balad.ir/embed?p=2DXL2BtYXXelWX",
			"googlemap": "https://goo.gl/maps/rvrA9wYqCEyUmiAJ9",
			"location": "35.7470845,51.3130091"
		},
		{
			"name": "مرکز جامع اهدای خون منطقه 4 (تهرانپارس)",
			"address": "تهران- فلکه چهارم تهرانپارس- ضلع غربی پارک پلیس- انتهای خیابان سیزدهم شرقی",
			"worktime": "شنبه الی پنج شنبه ساعت 8 الی 19",
			"phone": "77370309|77370355|77370379|77370381",
			"balad": "https://balad.ir/embed?p=4VFxJCbMEdJRvU",
			"googlemap": "https://goo.gl/maps/jeX2yERtoXD3qL6y6",
			"location": "35.7582795,51.5363704"
		},
		{
			"name": "مرکز جامع اهدای خون منطقه 20 (شهر ری)",
			"address": "شهید آوینی- خیابان شهید کریمی شیرازی- روبروی فروشگاه شهروند",
			"worktime": "شنبه الی 5 شنبه ساعت 8 الی 19",
			"phone": "55925609|55925395|55925974|55925437",
			"balad": "https://balad.ir/embed?p=5GEnixEeLN1iRZ",
			"googlemap": "https://goo.gl/maps/enkfD7UNGBPsxy2o6",
			"location": "35.5853789,51.4455041"
		},
		{
			"name": "مرکز جامع اهدای خون منطقه 1 (پل صدر)",
			"address": "شریعتی- زرگنده (خاقانی)- خ عطاری مقدم شمالی – خ لسانی-انتهای خ شکرآیی",
			"worktime": "شنبه الی پنج شنبه  از ساعت 8 لغایت 15",
			"phone": "26643634|22604270|22645015",
			"balad": "https://balad.ir/embed?p=2J1LhYU4doymxC",
			"googlemap": "https://goo.gl/maps/SsNAmJowdPSCzrLA7",
			"location": "35.7806142,51.4292381"
		},
		{
			"name": "مرکز اهدای خون پیروزی",
			"address": "خ پیروزی –بین خ اول ودوم نیروی هوایی پ271",
			"worktime": "شنبه الی پنج شنبه  از ساعت 8 لغایت 19",
			"phone": "77465137",
			"balad": "https://balad.ir/embed?p=PIICEtjBIFJyzH",
			"googlemap": "https://goo.gl/maps/gJSuyw1Qkf2s6qSVA",
			"location": "35.6923019,51.4787589"
		},
		{
			"name": "مرکز اهدای خون نارمک",
			"address": "بزرگراه رسالت –بین میدان رسالت وچهارراه سرسبز نبش خ 49",
			"worktime": "شنبه الی پنج شنبه  از ساعت 8 لغایت 15",
			"phone": "77191144|77805570",
			"balad": "https://balad.ir/embed?p=PXb7jNCJ2t58LO",
			"googlemap": "https://goo.gl/maps/VREGVRbS6NzxUtUUA",
			"location": "35.7359424,51.4896668"
		},
		{
			"name": "مرکز اهدای خون مترو امام خمینی",
			"address": "م امام خمینی –ابتدای باب همایون",
			"worktime": "شنبه الی پنج شنبه  از ساعت 8 لغایت 15",
			"phone": "33991010",
			"balad": "https://balad.ir/embed?p=5MBLikK6cnoG5f",
			"googlemap": "https://goo.gl/maps/LWTHaSJsjiLVgtmBA",
			"location": "35.683907,51.4181735"
		},
		{
			"name": "مرکز اهدای خون شهریار",
			"address": "شهرستان شهریار-خ انقلاب – روبه روی امام زاده اسماعیل",
			"worktime": "شنبه الی پنج شنبه  از ساعت 8 لغایت 15",
			"phone": "65263000",
			"balad": "https://balad.ir/embed?p=PQ3CtraoL0T5vm",
			"googlemap": "https://goo.gl/maps/gv73ggbJViGfRZem7",
			"location": "35.656884,51.0514485"
		},
		{
			"name": "مرکز اهدای خون رباط کریم",
			"address": "بلوار مصلی –ضلع جنوب غربی میدان معلم روبه روی مرکز پیش دانشگاهی دارالعلم",
			"worktime": "روزهای فرد از ساعت 8 لغایت 15",
			"phone": "56214055",
			"balad": "https://balad.ir/embed?p=5LcKkMFmBfs3F6",
			"googlemap": "https://goo.gl/maps/81dRHmQYmNyZLuDA7",
			"location": "35.4792444,51.0805004"
		},
		{
			"name": "مرکز اهدای خون شهر قدس",
			"address": "شهرستان قدس-خ 45 متری انقلاب-بوستان آزادگان-نبش خ صنعت 2",
			"worktime": "روزهای زوج  از ساعت 8 لغایت 15",
			"phone": "44802440",
			"balad": "https://balad.ir/embed?p=2YYL0qXWvB7lwt",
			"googlemap": "https://goo.gl/maps/P2JvJDjU7zLsj4Fx5",
			"location": "35.7186704,51.1221612"
		},
		{
			"name": "مرکز اهدای خون ورامین",
			"address": "کمربندی شهید بهشتی-خ مجتمع ادارات-خ امیرکبیر-کوچه خیام",
			"worktime": "شنبه الی پنج شنبه  از ساعت 8 لغایت 15",
			"phone": "36245377|36245344",
			"balad": "https://balad.ir/embed?p=3YouAvRObZ83Zg",
			"googlemap": "https://goo.gl/maps/j1nK1er8ezVSfXq26",
			"location": "35.3252876,51.6375636"
		}
	]
}